$GNGGA,122144.75,5741.1528,N,01153.1746,E,4,-1,,3.29,M,35.78,M,,*4D
$GNVTG,008.36,T,008.36,M,2.77,N,1.50,K,D*3E
$PASHR,122144.75,240.68,T,,,,,,,2*04
$GNGGA,122144.96,5741.1528,N,01153.1746,E,4,-1,,3.25,M,35.78,M,,*4C
$GNVTG,007.00,T,007.00,M,2.84,N,1.53,K,D*31
$PASHR,122144.96,240.30,T,,,,,,,2*04
$GNGGA,122145.18,5741.1529,N,01153.1747,E,4,-1,,3.21,M,35.78,M,,*4F
$GNVTG,005.07,T,005.07,M,2.93,N,1.58,K,D*3C
$PASHR,122145.18,239.91,T,,,,,,,2*06
$GNGGA,122145.61,5741.1530,N,01153.1747,E,4,-1,,3.12,M,35.78,M,,*49
$GNVTG,004.07,T,004.07,M,2.98,N,1.61,K,D*3D
$PASHR,122145.61,239.04,T,,,,,,,2*04
$GNGGA,122145.83,5741.1530,N,01153.1747,E,4,-1,,3.07,M,35.78,M,,*41
$GNVTG,004.27,T,004.27,M,2.97,N,1.61,K,D*32
$PASHR,122145.83,238.59,T,,,,,,,2*01
$GNGGA,122146.05,5741.1531,N,01153.1747,E,4,-1,,3.03,M,35.78,M,,*49
$GNVTG,004.44,T,004.44,M,2.97,N,1.61,K,D*32
$PASHR,122146.05,238.13,T,,,,,,,2*02
$GNGGA,122146.26,5741.1532,N,01153.1747,E,4,-1,,2.99,M,35.78,M,,*49
$GNVTG,004.25,T,004.25,M,2.96,N,1.60,K,D*32
$PASHR,122146.26,237.68,T,,,,,,,2*00
$GNGGA,122146.48,5741.1532,N,01153.1747,E,4,-1,,2.94,M,35.78,M,,*4C
$GNVTG,004.20,T,004.20,M,2.96,N,1.60,K,D*32
$PASHR,122146.48,237.22,T,,,,,,,2*06
$GNGGA,122146.70,5741.1533,N,01153.1747,E,4,-1,,2.90,M,35.78,M,,*42
$GNVTG,003.42,T,003.42,M,2.92,N,1.58,K,D*3D
$PASHR,122146.70,236.78,T,,,,,,,2*03
$GNGGA,122146.91,5741.1533,N,01153.1747,E,4,-1,,2.85,M,35.78,M,,*49
$GNVTG,002.93,T,002.93,M,2.89,N,1.56,K,D*39
$PASHR,122146.91,236.32,T,,,,,,,2*02
$GNGGA,122147.13,5741.1534,N,01153.1747,E,4,-1,,2.80,M,35.78,M,,*40
$GNVTG,002.32,T,002.32,M,2.82,N,1.52,K,D*36
$PASHR,122147.13,235.86,T,,,,,,,2*05
$GNGGA,122147.35,5741.1534,N,01153.1747,E,4,-1,,2.76,M,35.78,M,,*4D
$GNVTG,001.95,T,001.95,M,2.78,N,1.50,K,D*31
$PASHR,122147.35,235.39,T,,,,,,,2*05
$GNGGA,122147.56,5741.1535,N,01153.1747,E,4,-1,,2.71,M,35.78,M,,*4E
$GNVTG,002.35,T,002.35,M,2.69,N,1.45,K,D*35
$PASHR,122147.56,234.92,T,,,,,,,2*00
$GNGGA,122147.78,5741.1535,N,01153.1747,E,4,-1,,2.66,M,35.78,M,,*44
$GNVTG,003.17,T,003.17,M,2.64,N,1.43,K,D*3E
$PASHR,122147.78,234.44,T,,,,,,,2*07
$GNGGA,122148.21,5741.1536,N,01153.1747,E,4,-1,,2.56,M,35.78,M,,*47
$GNVTG,006.03,T,006.03,M,2.50,N,1.35,K,D*38
$PASHR,122148.21,233.48,T,,,,,,,2*0F
$GPGSV,12,1,13,01,12,032,42,13,10,25,304,37,13,12,25,221,43,13,13,27,157,47*62
$GPGSV,12,2,13,14,23,059,40,13,15,49,200,46,13,17,41,091,46,13,19,35,123,44*66
$GPGSV,12,3,13,20,17,268,35,13,21,10,010,41,13,23,23,269,42,13,24,67,267,44*62
$GPGSV,12,4,13,28,32,059,44,,,,,,,,,,,,,,,*57
$GLGSV,12,5,09,66,20,195,48,09,67,53,251,47,09,68,33,324,48,09,76,59,061,51*77
$GLGSV,12,6,09,77,61,268,40,09,78,08,256,47,09,84,06,349,34,09,85,31,042,50*79
$GLGSV,12,7,09,86,24,098,40,,,,,,,,,,,,,,,*49
$GAGSV,12,8,09,301,26,066,45,09,303,12,323,31,09,305,50,280,43,09,309,43,198,46*7A
$GAGSV,12,9,09,313,13,009,39,09,324,44,234,47,09,326,17,062,44,09,331,79,104,48*7E
$GAGSV,12,10,09,333,04,107,37,,,,,,,,,,,,,,,*4A
$GBGSV,12,11,07,407,04,053,40,07,410,25,060,43,07,419,22,213,45,07,421,18,327,38*4C
$GBGSV,12,12,07,422,39,272,46,07,427,23,114,46,07,428,27,057,48,,,,,*48
$GNGSA,2,M,01,10,12,13,14,15,17,19,20,21,23,24,28,0.83,0.47,0.68*39
$GNGSA,2,M,66,67,68,76,77,78,84,85,86,0.83,0.47,0.68*35
$GNGSA,2,M,301,303,305,309,313,324,326,331,333,0.83,0.47,0.68*04
$GNGSA,2,M,407,410,419,421,422,427,428,0.83,0.47,0.68*0D
$GNGGA,122148.39,5741.1536,N,01153.1747,E,4,38,0.5,2.55,M,35.78,M,,*71
$GNVTG,006.29,T,006.29,M,2.47,N,1.33,K,D*38
$PASHR,122148.39,233.37,T,,,,,,,2*0E
$GNRMC,122148.39,A,5741.1536,N,01153.1747,E,2.47,6.29,030221,,W,D*1F
$GNZDA,122148.39,03,02,2021,,*7E
$GPGSV,12,1,13,01,12,032,42,13,10,25,304,37,13,12,25,221,43,13,13,27,157,47*62
$GPGSV,12,2,13,14,23,059,41,13,15,49,200,46,13,17,41,091,47,13,19,35,123,43*61
$GPGSV,12,3,13,20,17,268,38,13,21,10,010,41,13,23,23,269,43,13,24,67,267,44*6E
$GPGSV,12,4,13,28,32,059,44,,,,,,,,,,,,,,,*57
$GLGSV,12,5,09,66,20,195,48,09,67,53,251,48,09,68,33,324,48,09,76,59,061,50*79
$GLGSV,12,6,09,77,61,268,40,09,78,08,256,47,09,84,06,349,34,09,85,31,042,49*71
$GLGSV,12,7,09,86,24,098,38,,,,,,,,,,,,,,,*46
$GAGSV,12,8,09,301,26,066,45,09,303,12,323,31,09,305,50,280,43,09,309,43,198,46*7A
$GAGSV,12,9,09,313,13,009,39,09,324,44,234,47,09,326,17,062,42,09,331,79,104,48*78
$GAGSV,12,10,09,333,04,107,37,,,,,,,,,,,,,,,*4A
$GBGSV,12,11,07,407,04,053,40,07,410,25,060,43,07,419,22,213,45,07,421,18,327,40*43
$GBGSV,12,12,07,422,39,272,46,07,427,23,114,46,07,428,27,057,45,,,,,*45
$GNGSA,2,M,01,10,12,13,14,15,17,19,20,21,23,24,28,0.83,0.47,0.68*39
$GNGSA,2,M,66,67,68,76,77,78,84,85,86,0.83,0.47,0.68*35
$GNGSA,2,M,301,303,305,309,313,324,326,331,333,0.83,0.47,0.68*04
$GNGSA,2,M,407,410,419,421,422,427,428,0.83,0.47,0.68*0D
$GNGGA,122148.59,5741.1530,N,01153.1755,E,4,38,0.5,4.09,M,35.78,M,,*7D
$GNVTG,062.36,T,062.36,M,1.28,N,0.69,K,D*3C
$PASHR,122148.59,232.74,T,,,,,,,2*0E
$GNRMC,122148.59,A,5741.1530,N,01153.1755,E,1.28,62.36,030221,,W,D*2A
$GNZDA,122148.59,03,02,2021,,*78
$GPGSV,12,1,13,01,12,032,44,13,10,25,304,37,13,12,25,221,44,13,13,27,157,47*63
$GPGSV,12,2,13,14,23,059,43,13,15,49,200,47,13,17,41,091,49,13,19,35,123,44*6B
$GPGSV,12,3,13,20,17,268,37,13,21,10,010,43,13,23,23,269,44,13,24,67,267,44*64
$GPGSV,12,4,13,28,32,059,44,,,,,,,,,,,,,,,*57
$GLGSV,12,5,09,66,20,195,47,09,67,53,251,46,09,68,33,324,46,09,76,59,061,51*77
$GLGSV,12,6,09,77,61,268,40,09,78,08,256,45,09,84,06,349,35,09,85,31,042,49*72
$GLGSV,12,7,09,86,24,098,38,,,,,,,,,,,,,,,*46
$GAGSV,12,8,09,301,26,066,44,09,303,12,323,32,09,305,50,280,44,09,309,43,198,46*7F
$GAGSV,12,9,09,313,13,009,41,09,324,44,234,47,09,326,17,062,42,09,331,79,104,48*77
$GAGSV,12,10,09,333,04,107,37,,,,,,,,,,,,,,,*4A
$GBGSV,12,11,07,407,04,053,40,07,410,25,060,44,07,419,22,213,46,07,421,18,327,42*45
$GBGSV,12,12,07,422,39,272,47,07,427,23,114,45,07,428,27,057,44,,,,,*46
$GNGSA,2,M,01,10,12,13,14,15,17,19,20,21,23,24,28,0.83,0.47,0.68*39
$GNGSA,2,M,66,67,68,76,77,78,84,85,86,0.83,0.47,0.68*35
$GNGSA,2,M,301,303,305,309,313,324,326,331,333,0.83,0.47,0.68*04
$GNGSA,2,M,407,410,419,421,422,427,428,0.83,0.47,0.68*0D
$GNGGA,122149.19,5741.1530,N,01153.1755,E,4,38,0.5,4.05,M,35.78,M,,*74
$GNVTG,026.40,T,026.40,M,1.30,N,0.70,K,D*3D
$PASHR,122149.19,232.24,T,,,,,,,2*0E
$GNRMC,122149.19,A,5741.1530,N,01153.1755,E,1.30,26.40,030221,,W,D*27
$GNZDA,122149.19,03,02,2021,,*7D
$GPGSV,12,1,13,01,12,032,44,13,10,25,304,37,13,12,25,221,44,13,13,27,157,47*63
$GPGSV,12,2,13,14,23,059,43,13,15,49,200,47,13,17,41,091,50,13,19,35,123,45*62
$GPGSV,12,3,13,20,17,268,34,13,21,10,010,43,13,23,23,269,42,13,24,67,267,44*61
$GPGSV,12,4,13,28,32,059,45,,,,,,,,,,,,,,,*56
$GLGSV,12,5,09,66,20,195,47,09,67,53,251,47,09,68,33,324,48,09,76,59,061,49*71
$GLGSV,12,6,09,77,61,268,40,09,78,08,256,45,09,84,06,349,35,09,85,31,042,49*72
$GLGSV,12,7,09,86,24,098,39,,,,,,,,,,,,,,,*47
$GAGSV,12,8,09,301,26,066,44,09,303,12,323,32,09,305,50,280,44,09,309,43,198,46*7F
$GAGSV,12,9,09,313,13,009,41,09,324,44,234,47,09,326,17,062,41,09,331,79,104,47*7B
$GAGSV,12,10,09,333,04,107,37,,,,,,,,,,,,,,,*4A
$GBGSV,12,11,07,407,04,053,40,07,410,25,060,44,07,419,22,213,45,07,421,18,327,42*46
$GBGSV,12,12,07,422,39,272,46,07,427,23,114,44,07,428,27,057,41,,,,,*43
$GNGSA,2,M,01,10,12,13,14,15,17,19,20,21,23,24,28,0.83,0.47,0.68*39
$GNGSA,2,M,66,67,68,76,77,78,84,85,86,0.83,0.47,0.68*35
$GNGSA,2,M,301,303,305,309,313,324,326,331,333,0.83,0.47,0.68*04
$GNGSA,2,M,407,410,419,421,422,427,428,0.83,0.47,0.68*0D
$GNGGA,122149.39,5741.1530,N,01153.1756,E,4,38,0.5,4.06,M,35.78,M,,*76
$GNVTG,018.36,T,018.36,M,1.40,N,0.76,K,D*3C
$PASHR,122149.39,230.85,T,,,,,,,2*05
$GNRMC,122149.39,A,5741.1530,N,01153.1756,E,1.40,18.36,030221,,W,D*2D
$GNZDA,122149.39,03,02,2021,,*7F
$GPGSV,12,1,13,01,12,032,44,13,10,25,304,39,13,12,25,221,45,13,13,27,157,47*6C
$GPGSV,12,2,13,14,23,059,44,13,15,49,200,46,13,17,41,091,50,13,19,35,123,44*65
$GPGSV,12,3,13,20,17,268,34,13,21,10,010,43,13,23,23,269,41,13,24,67,267,45*63
$GPGSV,12,4,13,28,32,059,45,,,,,,,,,,,,,,,*56
$GLGSV,12,5,09,66,20,195,48,09,67,53,251,47,09,68,33,324,47,09,76,59,061,50*79
$GLGSV,12,6,09,77,61,268,40,09,78,08,256,45,09,84,06,349,36,09,85,31,042,49*71
$GLGSV,12,7,09,86,24,098,39,,,,,,,,,,,,,,,*47
$GAGSV,12,8,09,301,26,066,43,09,303,12,323,32,09,305,50,280,44,09,309,43,198,47*79
$GAGSV,12,9,09,313,13,009,42,09,324,44,234,48,09,326,17,062,41,09,331,79,104,48*78
$GAGSV,12,10,09,333,04,107,37,,,,,,,,,,,,,,,*4A
$GBGSV,12,11,07,407,04,053,41,07,410,25,060,45,07,419,22,213,43,07,421,18,327,44*46
$GBGSV,12,12,07,422,39,272,46,07,427,23,114,44,07,428,27,057,43,,,,,*41
$GNGSA,2,M,01,10,12,13,14,15,17,19,20,21,23,24,28,0.83,0.47,0.68*39
$GNGSA,2,M,66,67,68,76,77,78,84,85,86,0.83,0.47,0.68*35
$GNGSA,2,M,301,303,305,309,313,324,326,331,333,0.83,0.47,0.68*04
$GNGSA,2,M,407,410,419,421,422,427,428,0.83,0.47,0.68*0D
$GNGGA,122149.59,5741.1531,N,01153.1756,E,4,38,0.5,4.06,M,35.78,M,,*71
$GNVTG,013.14,T,013.14,M,1.74,N,0.94,K,D*37
$PASHR,122149.59,230.35,T,,,,,,,2*08
$GNRMC,122149.59,A,5741.1531,N,01153.1756,E,1.74,13.14,030221,,W,D*26
$GNZDA,122149.59,03,02,2021,,*79
$GPGSV,12,1,13,01,12,032,45,13,10,25,304,39,13,12,25,221,45,13,13,27,157,46*6C
$GPGSV,12,2,13,14,23,059,46,13,15,49,200,47,13,17,41,091,48,13,19,35,123,44*6F
$GPGSV,12,3,13,20,17,268,30,13,21,10,010,42,13,23,23,269,42,13,24,67,267,45*65
$GPGSV,12,4,13,28,32,059,45,,,,,,,,,,,,,,,*56
$GLGSV,12,5,09,66,20,195,47,09,67,53,251,47,09,68,33,324,47,09,76,59,061,50*76
$GLGSV,12,6,09,77,61,268,40,09,78,08,256,46,09,84,06,349,36,09,85,31,042,49*72
$GLGSV,12,7,09,86,24,098,39,,,,,,,,,,,,,,,*47
$GAGSV,12,8,09,301,26,066,42,09,303,12,323,31,09,305,50,280,44,09,309,43,198,48*74
$GAGSV,12,9,09,313,13,009,43,09,324,44,234,48,09,326,17,062,41,09,331,79,104,47*76
$GAGSV,12,10,09,333,04,107,36,,,,,,,,,,,,,,,*4B
$GBGSV,12,11,07,407,04,053,39,07,410,25,060,45,07,419,22,213,42,07,421,18,327,44*48
$GBGSV,12,12,07,422,39,272,47,07,427,23,114,45,07,428,27,057,42,,,,,*40
$GNGSA,2,M,01,10,12,13,14,15,17,19,20,21,23,24,28,0.83,0.47,0.68*39
$GNGSA,2,M,66,67,68,76,77,78,84,85,86,0.83,0.47,0.68*35
$GNGSA,2,M,301,303,305,309,313,324,326,331,333,0.83,0.47,0.68*04
$GNGSA,2,M,407,410,419,421,422,427,428,0.83,0.47,0.68*0D
$GNGGA,122149.99,5741.1531,N,01153.1756,E,4,38,0.5,4.05,M,35.78,M,,*7E
$GNVTG,012.57,T,012.57,M,1.87,N,1.01,K,D*36
$PASHR,122149.99,229.87,T,,,,,,,2*05
$GNRMC,122149.99,A,5741.1531,N,01153.1756,E,1.87,12.57,030221,,W,D*20
$GNZDA,122149.99,03,02,2021,,*75
$GPGSV,11,1,12,01,12,032,44,12,10,25,304,40,12,12,25,221,45,12,13,27,157,43*65
$GPGSV,11,2,12,14,23,059,45,12,15,48,200,48,12,17,41,091,48,12,19,35,123,44*61
$GPGSV,11,3,12,21,10,010,43,12,23,23,269,43,12,24,67,267,46,12,28,32,059,47*6A
$GLGSV,11,4,09,66,20,195,48,09,67,53,251,46,09,68,33,324,49,09,76,59,061,50*74
$GLGSV,11,5,09,77,61,268,40,09,78,08,256,45,09,84,06,349,36,09,85,31,042,49*71
$GLGSV,11,6,09,86,24,098,40,,,,,,,,,,,,,,,*4B
$GAGSV,11,7,09,301,26,066,42,09,303,12,323,31,09,305,50,280,45,09,309,43,198,48*79
$GAGSV,11,8,09,313,13,009,43,09,324,44,234,48,09,326,17,062,42,09,331,79,104,48*78
$GAGSV,11,9,09,333,04,107,34,,,,,,,,,,,,,,,*72
$GBGSV,11,10,07,407,04,053,40,07,410,25,060,45,07,419,22,213,40,07,421,18,327,43*41
$GBGSV,11,11,07,422,39,272,46,07,427,23,114,45,07,428,27,057,48,,,,,*4B
$GNGSA,2,M,01,10,12,13,14,15,17,19,21,23,24,28,0.84,0.48,0.69*1E
$GNGSA,2,M,66,67,68,76,77,78,84,85,86,0.84,0.48,0.69*3C
$GNGSA,2,M,301,303,305,309,313,324,326,331,333,0.84,0.48,0.69*0D
$GNGSA,2,M,407,410,419,421,422,427,428,0.84,0.48,0.69*04
$GNGGA,122150.59,5741.1531,N,01153.1756,E,4,37,0.5,4.05,M,35.78,M,,*75
$GNVTG,008.87,T,008.87,M,2.11,N,1.14,K,D*3E
$PASHR,122150.59,228.79,T,,,,,,,2*01
$GNRMC,122150.59,A,5741.1531,N,01153.1756,E,2.11,8.87,030221,,W,D*1E
$GNZDA,122150.59,03,02,2021,,*71
$GPGSV,11,1,12,01,12,032,44,12,10,25,304,44,12,12,25,221,45,12,13,27,157,43*61
$GPGSV,11,2,12,14,23,059,42,12,15,48,200,48,12,17,41,091,49,12,19,35,123,45*66
$GPGSV,11,3,12,21,10,010,42,12,23,23,269,45,12,24,67,267,46,12,28,32,059,46*6C
$GLGSV,11,4,09,66,20,195,47,09,67,53,251,47,09,68,33,324,50,09,76,59,061,50*72
$GLGSV,11,5,09,77,61,268,40,09,78,08,256,45,09,84,06,349,36,09,85,31,042,49*71
$GLGSV,11,6,09,86,24,098,40,,,,,,,,,,,,,,,*4B
$GAGSV,11,7,09,301,26,066,42,09,303,12,323,32,09,305,50,280,44,09,309,43,198,48*7B
$GAGSV,11,8,09,313,13,009,43,09,324,44,234,48,09,326,17,062,43,09,331,79,104,48*79
$GAGSV,11,9,09,333,04,107,35,,,,,,,,,,,,,,,*73
$GBGSV,11,10,07,407,04,053,36,07,410,25,060,45,07,419,22,213,38,07,421,18,327,44*48
$GBGSV,11,11,07,422,39,272,46,07,427,23,114,44,07,428,27,057,49,,,,,*4B
$GNGSA,2,M,01,10,12,13,14,15,17,19,21,23,24,28,0.84,0.48,0.69*1E
$GNGSA,2,M,66,67,68,76,77,78,84,85,86,0.84,0.48,0.69*3C
$GNGSA,2,M,301,303,305,309,313,324,326,331,333,0.84,0.48,0.69*0D
$GNGSA,2,M,407,410,419,421,422,427,428,0.84,0.48,0.69*04
$GNGGA,122150.99,5741.1532,N,01153.1756,E,4,37,0.5,4.06,M,35.78,M,,*79
$GNVTG,355.05,T,355.05,M,1.82,N,0.98,K,D*32
$PASHR,122150.99,227.23,T,,,,,,,1*0E
$GNRMC,122150.99,A,5741.1532,N,01153.1756,E,1.82,355.05,030221,,W,D*19
$GNZDA,122150.99,03,02,2021,,*7D
$GPGSV,11,1,12,01,12,032,43,12,10,25,304,43,12,12,25,221,45,12,13,27,157,43*61
$GPGSV,11,2,12,14,23,059,41,12,15,48,200,48,12,17,41,091,48,12,19,35,123,45*64
$GPGSV,11,3,12,21,10,010,41,12,23,23,269,45,12,24,67,267,46,12,28,32,059,47*6E
$GLGSV,11,4,09,66,20,195,46,09,67,53,251,48,09,68,33,324,50,09,76,59,061,50*7C
$GLGSV,11,5,09,77,61,268,40,09,78,08,256,46,09,84,06,349,33,09,85,31,042,51*7E
$GLGSV,11,6,09,86,24,098,41,,,,,,,,,,,,,,,*4A
$GAGSV,11,7,09,301,26,066,43,09,303,12,323,32,09,305,50,280,45,09,309,43,198,49*7A
$GAGSV,11,8,09,313,13,009,43,09,324,44,234,48,09,326,17,062,44,09,331,79,104,48*7E
$GAGSV,11,9,09,333,04,107,35,,,,,,,,,,,,,,,*73
$GBGSV,11,10,07,407,04,053,39,07,410,25,060,45,07,419,22,213,39,07,421,18,327,45*47
$GBGSV,11,11,07,422,39,272,46,07,427,23,114,46,07,428,27,057,50,,,,,*41
$GNGSA,2,M,01,10,12,13,14,15,17,19,21,23,24,28,0.84,0.48,0.69*1E
$GNGSA,2,M,66,67,68,76,77,78,84,85,86,0.84,0.48,0.69*3C
$GNGSA,2,M,301,303,305,309,313,324,326,331,333,0.84,0.48,0.69*0D
$GNGSA,2,M,407,410,419,421,422,427,428,0.84,0.48,0.69*04
$GNGGA,122151.19,5741.1533,N,01153.1757,E,4,37,0.5,4.06,M,35.78,M,,*70
$GNVTG,348.52,T,348.52,M,1.41,N,0.76,K,D*3D
$PASHR,122151.19,226.37,T,,,,,,,1*03
$GNRMC,122151.19,A,5741.1533,N,01153.1757,E,1.41,348.52,030221,,W,D*11
$GNZDA,122151.19,03,02,2021,,*74
$GPGSV,12,1,13,01,12,032,44,13,10,25,304,41,13,12,25,221,44,13,13,27,157,43*66
$GPGSV,12,2,13,14,23,059,42,13,15,48,200,47,13,17,41,091,48,13,19,35,123,45*6B
$GPGSV,12,3,13,20,17,268,37,13,21,10,010,40,13,23,23,269,45,13,24,67,267,46*64
$GPGSV,12,4,13,28,32,059,47,,,,,,,,,,,,,,,*54
$GLGSV,12,5,09,66,20,195,46,09,67,53,251,47,09,68,33,324,49,09,76,59,061,51*78
$GLGSV,12,6,09,77,61,268,41,09,78,08,256,46,09,84,06,349,34,09,85,31,042,52*7B
$GLGSV,12,7,09,86,24,098,40,,,,,,,,,,,,,,,*49
$GAGSV,12,8,09,301,26,066,44,09,303,12,323,33,09,305,50,280,45,09,309,43,198,48*71
$GAGSV,12,9,09,313,13,009,43,09,324,44,234,49,09,326,17,062,44,09,331,79,104,47*72
$GAGSV,12,10,09,333,04,107,36,,,,,,,,,,,,,,,*4B
$GBGSV,12,11,07,407,04,053,37,07,410,25,060,44,07,419,22,213,42,07,421,18,327,45*46
$GBGSV,12,12,07,422,39,272,45,07,427,23,114,46,07,428,27,057,50,,,,,*42
$GNGSA,2,M,01,10,12,13,14,15,17,19,20,21,23,24,28,0.83,0.47,0.68*39
$GNGSA,2,M,66,67,68,76,77,78,84,85,86,0.83,0.47,0.68*35
$GNGSA,2,M,301,303,305,309,313,324,326,331,333,0.83,0.47,0.68*04
$GNGSA,2,M,407,410,419,421,422,427,428,0.83,0.47,0.68*0D
$GNGGA,122151.59,5741.1533,N,01153.1757,E,4,38,0.5,4.06,M,35.78,M,,*7B
$GNVTG,354.47,T,354.47,M,1.55,N,0.84,K,D*35
$PASHR,122151.59,225.74,T,,,,,,,1*03
$GNRMC,122151.59,A,5741.1533,N,01153.1757,E,1.55,354.47,030221,,W,D*19
$GNZDA,122151.59,03,02,2021,,*70
$GPGSV,12,1,13,01,12,032,43,13,10,25,304,41,13,12,25,221,44,13,13,27,157,44*66
$GPGSV,12,2,13,14,23,059,40,13,15,48,200,47,13,17,41,091,49,13,19,35,123,45*68
$GPGSV,12,3,13,20,17,268,37,13,21,10,010,42,13,23,23,269,45,13,24,67,267,46*66
$GPGSV,12,4,13,28,32,059,46,,,,,,,,,,,,,,,*55
$GLGSV,12,5,09,66,20,195,46,09,67,53,251,46,09,68,33,324,49,09,76,59,061,51*79
$GLGSV,12,6,09,77,61,268,39,09,78,08,256,46,09,84,06,349,37,09,85,31,042,51*74
$GLGSV,12,7,09,86,24,098,39,,,,,,,,,,,,,,,*47
$GAGSV,12,8,09,301,26,066,45,09,303,12,323,33,09,305,50,280,46,09,309,43,198,47*7C
$GAGSV,12,9,09,313,13,009,41,09,324,44,234,49,09,326,17,062,45,09,331,79,104,47*71
$GAGSV,12,10,09,333,04,107,38,,,,,,,,,,,,,,,*45
$GBGSV,12,11,07,407,04,053,41,07,410,25,060,43,07,419,22,213,43,07,421,18,327,45*41
$GBGSV,12,12,07,422,39,272,44,07,427,23,114,46,07,428,27,057,50,,,,,*43
$GNGSA,2,M,01,10,12,13,14,15,17,19,20,21,23,24,28,0.83,0.47,0.68*39
$GNGSA,2,M,66,67,68,76,77,78,84,85,86,0.83,0.47,0.68*35
$GNGSA,2,M,301,303,305,309,313,324,326,331,333,0.83,0.47,0.68*04
$GNGSA,2,M,407,410,419,421,422,427,428,0.83,0.47,0.68*0D
$GNGGA,122151.99,5741.1534,N,01153.1757,E,4,38,0.5,4.06,M,35.78,M,,*70
$GNVTG,355.18,T,355.18,M,1.83,N,0.99,K,D*32
$PASHR,122151.99,224.77,T,,,,,,,2*0E
$GNRMC,122151.99,A,5741.1534,N,01153.1757,E,1.83,355.18,030221,,W,D*12
$GNZDA,122151.99,03,02,2021,,*7C
$GPGSV,12,1,13,01,12,032,44,13,10,25,304,44,13,12,25,221,44,13,13,27,157,44*64
$GPGSV,12,2,13,14,23,059,39,13,15,48,200,47,13,17,41,091,49,13,19,35,123,45*66
$GPGSV,12,3,13,20,17,268,37,13,21,10,010,43,13,23,23,269,46,13,24,67,267,48*6A
$GPGSV,12,4,13,28,32,059,45,,,,,,,,,,,,,,,*56
$GLGSV,12,5,09,66,20,195,47,09,67,53,251,47,09,68,33,324,49,09,76,59,061,50*78
$GLGSV,12,6,09,77,61,268,37,09,78,08,256,45,09,84,06,349,36,09,85,31,042,53*7A
$GLGSV,12,7,09,86,24,098,41,,,,,,,,,,,,,,,*48
$GAGSV,12,8,09,301,26,066,45,09,303,12,323,27,09,305,50,280,46,09,309,43,198,47*79
$GAGSV,12,9,09,313,13,009,41,09,324,44,234,48,09,326,17,062,45,09,331,79,104,47*70
$GAGSV,12,10,09,333,04,107,38,,,,,,,,,,,,,,,*45
$GBGSV,12,11,07,407,04,053,40,07,410,25,060,42,07,419,22,213,45,07,421,18,327,46*44
$GBGSV,12,12,07,422,39,272,45,07,427,23,114,47,07,428,27,057,50,,,,,*43
$GNGSA,2,M,01,10,12,13,14,15,17,19,20,21,23,24,28,0.83,0.47,0.68*39
$GNGSA,2,M,66,67,68,76,77,78,84,85,86,0.83,0.47,0.68*35
$GNGSA,2,M,301,303,305,309,313,324,326,331,333,0.83,0.47,0.68*04
$GNGSA,2,M,407,410,419,421,422,427,428,0.83,0.47,0.68*0D
$GNGGA,122152.39,5741.1534,N,01153.1757,E,4,38,0.5,4.06,M,35.78,M,,*79
$GNVTG,010.31,T,010.31,M,1.82,N,0.98,K,D*32
$PASHR,122152.39,223.57,T,,,,,,,2*02
$GNRMC,122152.39,A,5741.1534,N,01153.1757,E,1.82,10.31,030221,,W,D*23
$GNZDA,122152.39,03,02,2021,,*75
$GPGSV,12,1,13,01,12,032,44,13,10,25,304,43,13,12,25,221,43,13,13,27,157,43*63
$GPGSV,12,2,13,14,23,059,41,13,15,48,200,46,13,17,41,091,48,13,19,35,123,44*68
$GPGSV,12,3,13,20,17,268,37,13,21,10,010,43,13,23,23,269,46,13,24,67,267,48*6A
$GPGSV,12,4,13,28,32,059,44,,,,,,,,,,,,,,,*57
$GLGSV,12,5,09,66,20,195,49,09,67,53,251,44,09,68,33,324,49,09,76,59,061,51*74
$GLGSV,12,6,09,77,61,268,38,09,78,08,256,45,09,84,06,349,36,09,85,31,042,52*74
$GLGSV,12,7,09,86,24,098,41,,,,,,,,,,,,,,,*48
$GAGSV,12,8,09,301,26,066,45,09,303,12,323,27,09,305,50,280,46,09,309,43,198,48*76
$GAGSV,12,9,09,313,13,009,41,09,324,44,234,48,09,326,17,062,44,09,331,79,104,48*7E
$GAGSV,12,10,09,333,04,107,39,,,,,,,,,,,,,,,*44
$GBGSV,12,11,07,407,04,053,42,07,410,25,060,43,07,419,22,213,45,07,421,18,327,45*44
$GBGSV,12,12,07,422,39,272,45,07,427,23,114,48,07,428,27,057,50,,,,,*4C
$GNGSA,2,M,01,10,12,13,14,15,17,19,20,21,23,24,28,0.83,0.47,0.68*39
$GNGSA,2,M,66,67,68,76,77,78,84,85,86,0.83,0.47,0.68*35
$GNGSA,2,M,301,303,305,309,313,324,326,331,333,0.83,0.47,0.68*04
$GNGSA,2,M,407,410,419,421,422,427,428,0.83,0.47,0.68*0D
$GNGGA,122152.79,5741.1535,N,01153.1757,E,4,38,0.5,4.05,M,35.78,M,,*7F
$GNVTG,000.16,T,000.16,M,2.14,N,1.15,K,D*3A
$PASHR,122152.79,222.43,T,,,,,,,2*02
$GNRMC,122152.79,A,5741.1535,N,01153.1757,E,2.14,0.16,030221,,W,D*1E
$GNZDA,122152.79,03,02,2021,,*71
$GPGSV,12,1,13,01,12,032,44,13,10,25,304,43,13,12,25,221,41,13,13,27,157,43*61
$GPGSV,12,2,13,14,23,059,43,13,15,48,200,47,13,17,41,091,49,13,19,35,123,45*6B
$GPGSV,12,3,13,20,17,268,39,13,21,10,010,44,13,23,23,269,46,13,24,67,267,48*63
$GPGSV,12,4,13,28,32,059,46,,,,,,,,,,,,,,,*55
$GLGSV,12,5,09,66,20,195,49,09,67,53,251,45,09,68,33,324,49,09,76,59,061,51*75
$GLGSV,12,6,09,77,61,268,38,09,78,08,256,44,09,84,06,349,35,09,85,31,042,52*76
$GLGSV,12,7,09,86,24,098,39,,,,,,,,,,,,,,,*47
$GAGSV,12,8,09,301,26,066,45,09,303,12,323,27,09,305,50,280,46,09,309,43,198,48*76
$GAGSV,12,9,09,313,13,009,43,09,324,44,234,48,09,326,17,062,44,09,331,79,104,48*7C
$GAGSV,12,10,09,333,04,107,38,,,,,,,,,,,,,,,*45
$GBGSV,12,11,07,407,04,053,41,07,410,25,060,43,07,419,22,213,46,07,421,18,327,45*44
$GBGSV,12,12,07,422,39,272,42,07,427,23,114,48,07,428,27,057,49,,,,,*43
$GNGSA,2,M,01,10,12,13,14,15,17,19,20,21,23,24,28,0.83,0.47,0.68*39
$GNGSA,2,M,66,67,68,76,77,78,84,85,86,0.83,0.47,0.68*35
$GNGSA,2,M,301,303,305,309,313,324,326,331,333,0.83,0.47,0.68*04
$GNGSA,2,M,407,410,419,421,422,427,428,0.83,0.47,0.68*0D
$GNGGA,122153.19,5741.1535,N,01153.1757,E,4,38,0.5,4.05,M,35.78,M,,*78
$GNVTG,004.18,T,004.18,M,2.03,N,1.10,K,D*39
$PASHR,122153.19,221.23,T,,,,,,,2*00
$GNRMC,122153.19,A,5741.1535,N,01153.1757,E,2.03,4.18,030221,,W,D*15
$GNZDA,122153.19,03,02,2021,,*76
$GPGSV,12,1,13,01,12,032,44,13,10,25,304,41,13,12,25,221,41,13,13,27,157,43*63
$GPGSV,12,2,13,14,23,059,41,13,15,48,200,47,13,17,41,091,48,13,19,35,123,44*69
$GPGSV,12,3,13,20,17,268,40,13,21,10,010,44,13,23,23,269,46,13,24,67,267,47*62
$GPGSV,12,4,13,28,32,059,45,,,,,,,,,,,,,,,*56
$GLGSV,12,5,09,66,20,195,48,09,67,53,251,44,09,68,33,324,49,09,76,59,061,51*75
$GLGSV,12,6,09,77,61,268,38,09,78,08,256,43,09,84,06,349,35,09,85,31,042,52*71
$GLGSV,12,7,09,86,24,098,39,,,,,,,,,,,,,,,*47
$GAGSV,12,8,09,301,26,066,45,09,303,12,323,27,09,305,50,280,47,09,309,43,198,48*77
$GAGSV,12,9,09,313,13,009,43,09,324,44,234,48,09,326,17,062,44,09,331,79,104,48*7C
$GAGSV,12,10,09,333,04,107,38,,,,,,,,,,,,,,,*45
$GBGSV,12,11,07,407,04,053,41,07,410,25,060,43,07,419,22,213,46,07,421,18,327,44*45
$GBGSV,12,12,07,422,39,272,45,07,427,23,114,48,07,428,27,057,48,,,,,*45
$GNGSA,2,M,01,10,12,13,14,15,17,19,20,21,23,24,28,0.83,0.47,0.68*39
$GNGSA,2,M,66,67,68,76,77,78,84,85,86,0.83,0.47,0.68*35
$GNGSA,2,M,301,303,305,309,313,324,326,331,333,0.83,0.47,0.68*04
$GNGSA,2,M,407,410,419,421,422,427,428,0.83,0.47,0.68*0D
$GNGGA,122153.39,5741.1536,N,01153.1757,E,4,38,0.5,4.05,M,35.78,M,,*79
$GNVTG,006.01,T,006.01,M,2.10,N,1.13,K,D*38
$PASHR,122153.39,220.37,T,,,,,,,2*06
$GNRMC,122153.39,A,5741.1536,N,01153.1757,E,2.10,6.01,030221,,W,D*1C
$GNZDA,122153.39,03,02,2021,,*74
$GPGSV,12,1,13,01,12,032,43,13,10,25,304,42,13,12,25,221,40,13,13,27,157,44*61
$GPGSV,12,2,13,14,23,059,41,13,15,48,200,46,13,17,41,091,48,13,19,35,123,44*68
$GPGSV,12,3,13,20,17,268,40,13,21,10,010,45,13,23,23,269,46,13,24,67,267,47*63
$GPGSV,12,4,13,28,32,059,45,,,,,,,,,,,,,,,*56
$GLGSV,12,5,09,66,20,195,48,09,67,53,251,44,09,68,33,324,50,09,76,59,061,51*7D
$GLGSV,12,6,09,77,61,268,38,09,78,08,256,42,09,84,06,349,35,09,85,31,042,51*73
$GLGSV,12,7,09,86,24,098,37,,,,,,,,,,,,,,,*49
$GAGSV,12,8,09,301,26,066,45,09,303,12,323,27,09,305,50,280,47,09,309,43,198,49*76
$GAGSV,12,9,09,313,13,009,43,09,324,44,234,47,09,326,17,062,44,09,331,79,104,48*73
$GAGSV,12,10,09,333,04,107,39,,,,,,,,,,,,,,,*44
$GBGSV,12,11,07,407,04,053,41,07,410,25,060,43,07,419,22,213,45,07,421,18,327,44*46
$GBGSV,12,12,07,422,39,272,45,07,427,23,114,48,07,428,27,057,47,,,,,*4A
$GNGSA,2,M,01,10,12,13,14,15,17,19,20,21,23,24,28,0.83,0.47,0.68*39
$GNGSA,2,M,66,67,68,76,77,78,84,85,86,0.83,0.47,0.68*35
$GNGSA,2,M,301,303,305,309,313,324,326,331,333,0.83,0.47,0.68*04
$GNGSA,2,M,407,410,419,421,422,427,428,0.83,0.47,0.68*0D
$GNGGA,122153.59,5741.1536,N,01153.1757,E,4,38,0.5,4.06,M,35.78,M,,*7C
$GNVTG,359.38,T,359.38,M,2.21,N,1.19,K,D*30
$PASHR,122153.59,219.51,T,,,,,,,2*0A
$GNRMC,122153.59,A,5741.1536,N,01153.1757,E,2.21,359.38,030221,,W,D*1B
$GNZDA,122153.59,03,02,2021,,*72
$GPGSV,12,1,13,01,12,032,42,13,10,25,304,42,13,12,25,221,36,13,13,27,157,46*63
$GPGSV,12,2,13,14,23,059,44,13,15,48,200,45,13,17,41,091,47,13,19,35,123,45*60
$GPGSV,12,3,13,20,17,268,41,13,21,10,010,45,13,23,23,269,46,13,24,67,267,47*62
$GPGSV,12,4,13,28,32,059,45,,,,,,,,,,,,,,,*56
$GLGSV,12,5,09,66,20,195,46,09,67,53,251,48,09,68,33,324,50,09,76,59,061,50*7E
$GLGSV,12,6,09,77,61,268,38,09,78,08,256,38,09,84,06,349,35,09,85,31,042,49*77
$GLGSV,12,7,09,86,24,098,38,,,,,,,,,,,,,,,*46
$GAGSV,12,8,09,301,26,066,45,09,303,12,323,35,09,305,50,280,46,09,309,43,198,49*74
$GAGSV,12,9,09,313,13,009,43,09,324,44,234,47,09,326,17,062,45,09,331,79,104,48*72
$GAGSV,12,10,09,333,04,107,39,,,,,,,,,,,,,,,*44
$GBGSV,12,11,07,407,04,053,41,07,410,25,060,43,07,419,22,213,45,07,421,18,327,39*4C
$GBGSV,12,12,07,422,39,272,46,07,427,23,114,47,07,428,27,057,49,,,,,*48
$GNGSA,2,M,01,10,12,13,14,15,17,19,20,21,23,24,28,0.83,0.47,0.68*39
$GNGSA,2,M,66,67,68,76,77,78,84,85,86,0.83,0.47,0.68*35
$GNGSA,2,M,301,303,305,309,313,324,326,331,333,0.83,0.47,0.68*04
$GNGSA,2,M,407,410,419,421,422,427,428,0.83,0.47,0.68*0D
$GNGGA,122154.19,5741.1537,N,01153.1757,E,4,38,0.5,4.07,M,35.78,M,,*7F
$GNVTG,354.37,T,354.37,M,2.13,N,1.15,K,D*3D
$PASHR,122154.19,218.81,T,,,,,,,2*05
$GNRMC,122154.19,A,5741.1537,N,01153.1757,E,2.13,354.37,030221,,W,D*1A
$GNZDA,122154.19,03,02,2021,,*71
$GPGSV,12,1,13,01,12,032,42,13,10,25,304,40,13,12,25,221,40,13,13,27,157,46*60
$GPGSV,12,2,13,14,23,059,43,13,15,48,200,46,13,17,41,091,47,13,19,35,123,46*67
$GPGSV,12,3,13,20,17,268,40,13,21,10,010,45,13,23,23,269,44,13,24,67,267,47*61
$GPGSV,12,4,13,28,32,059,46,,,,,,,,,,,,,,,*55
$GLGSV,12,5,09,66,20,195,47,09,67,53,251,47,09,68,33,324,50,09,76,59,061,51*71
$GLGSV,12,6,09,77,61,268,37,09,78,08,256,39,09,84,06,349,35,09,85,31,042,49*79
$GLGSV,12,7,09,86,24,098,37,,,,,,,,,,,,,,,*49
$GAGSV,12,8,09,301,26,066,46,09,303,12,323,32,09,305,50,280,46,09,309,43,198,48*71
$GAGSV,12,9,09,313,13,009,43,09,324,44,234,47,09,326,17,062,43,09,331,79,104,48*74
$GAGSV,12,10,09,333,04,107,38,,,,,,,,,,,,,,,*45
$GBGSV,12,11,07,407,04,053,41,07,410,25,060,43,07,419,22,213,45,07,421,18,327,39*4C
$GBGSV,12,12,07,422,39,272,47,07,427,23,114,46,07,428,27,057,47,,,,,*46
$GNGSA,2,M,01,10,12,13,14,15,17,19,20,21,23,24,28,0.83,0.47,0.68*39
$GNGSA,2,M,66,67,68,76,77,78,84,85,86,0.83,0.47,0.68*35
$GNGSA,2,M,301,303,305,309,313,324,326,331,333,0.83,0.47,0.68*04
$GNGSA,2,M,407,410,419,421,422,427,428,0.83,0.47,0.68*0D
$GNGGA,122154.99,5741.1537,N,01153.1757,E,4,38,0.5,4.07,M,35.78,M,,*77
$GNVTG,350.31,T,350.31,M,1.51,N,0.82,K,D*37
$PASHR,122154.99,216.79,T,,,,,,,2*04
$GNRMC,122154.99,A,5741.1537,N,01153.1757,E,1.51,350.31,030221,,W,D*15
$GNZDA,122154.99,03,02,2021,,*79
$GPGSV,12,1,13,01,12,032,43,13,10,25,304,39,13,12,25,221,43,13,13,27,157,44*6E
$GPGSV,12,2,13,14,23,059,41,13,15,48,200,46,13,17,41,091,49,13,19,35,123,45*68
$GPGSV,12,3,13,20,17,268,40,13,21,10,010,44,13,23,23,269,44,13,24,67,267,49*6E
$GPGSV,12,4,13,28,32,059,47,,,,,,,,,,,,,,,*54
$GLGSV,12,5,09,66,20,195,47,09,67,53,251,46,09,68,33,324,50,09,76,59,061,51*70
$GLGSV,12,6,09,77,61,268,36,09,78,08,256,34,09,84,06,349,36,09,85,31,042,51*7F
$GLGSV,12,7,09,86,24,098,38,,,,,,,,,,,,,,,*46
$GAGSV,12,8,09,301,26,066,45,09,303,12,323,34,09,305,50,280,47,09,309,43,198,48*75
$GAGSV,12,9,09,313,13,009,43,09,324,44,234,46,09,326,17,062,43,09,331,79,104,47*7A
$GAGSV,12,10,09,333,04,107,38,,,,,,,,,,,,,,,*45
$GBGSV,12,11,07,407,04,053,40,07,410,25,060,43,07,419,22,213,43,07,421,18,327,37*45
$GBGSV,12,12,07,422,39,272,47,07,427,23,114,46,07,428,27,057,47,,,,,*46
$GNGSA,2,M,01,10,12,13,14,15,17,19,20,21,23,24,28,0.83,0.47,0.68*39
$GNGSA,2,M,66,67,68,76,77,78,84,85,86,0.83,0.47,0.68*35
$GNGSA,2,M,301,303,305,309,313,324,326,331,333,0.83,0.47,0.68*04
$GNGSA,2,M,407,410,419,421,422,427,428,0.83,0.47,0.68*0D
$GNGGA,122155.59,5741.1538,N,01153.1757,E,4,38,0.5,4.06,M,35.78,M,,*74
$GNVTG,356.61,T,356.61,M,1.32,N,0.71,K,D*3E
$PASHR,122155.59,214.36,T,,,,,,,2*00
$GNRMC,122155.59,A,5741.1538,N,01153.1757,E,1.32,356.61,030221,,W,D*11
$GNZDA,122155.59,03,02,2021,,*74
$GNGGA,122156.01,5741.1540,N,01153.1756,E,4,-1,,4.06,M,35.78,M,,*48
$GNVTG,352.42,T,352.42,M,2.27,N,1.23,K,D*3F
$PASHR,122156.01,211.80,T,,,,,,,3*07
$GNGGA,122156.25,5741.1540,N,01153.1756,E,4,-1,,4.07,M,35.78,M,,*4F
$GNVTG,352.73,T,352.73,M,2.49,N,1.34,K,D*31
$PASHR,122156.25,211.13,T,,,,,,,3*0B
$GPGSV,12,1,13,01,12,032,44,13,10,25,304,39,13,12,25,221,46,13,13,27,157,45*6D
$GPGSV,12,2,13,14,23,059,42,13,15,48,200,47,13,17,41,091,48,13,19,35,123,46*68
$GPGSV,12,3,13,20,17,268,39,13,21,10,010,44,13,23,23,269,40,13,24,67,267,49*64
$GPGSV,12,4,13,28,32,059,44,,,,,,,,,,,,,,,*57
$GLGSV,12,5,09,66,20,195,45,09,67,53,251,45,09,68,33,324,51,09,76,59,061,52*73
$GLGSV,12,6,09,77,61,268,34,09,78,08,256,38,09,84,06,349,36,09,85,31,042,49*78
$GLGSV,12,7,09,86,24,098,39,,,,,,,,,,,,,,,*47
$GAGSV,12,8,09,301,26,066,43,09,303,12,323,34,09,305,50,280,46,09,309,43,198,46*7C
$GAGSV,12,9,09,313,13,009,43,09,324,44,234,45,09,326,17,062,43,09,331,79,104,48*76
$GAGSV,12,10,09,333,04,107,35,,,,,,,,,,,,,,,*48
$GBGSV,12,11,07,407,04,053,41,07,410,25,060,44,07,419,22,213,35,07,421,18,327,34*41
$GBGSV,12,12,07,422,39,272,43,07,427,23,114,46,07,428,27,057,48,,,,,*4D
$GNGSA,2,M,01,10,12,13,14,15,17,19,20,21,23,24,28,0.83,0.47,0.68*39
$GNGSA,2,M,66,67,68,76,77,78,84,85,86,0.83,0.47,0.68*35
$GNGSA,2,M,301,303,305,309,313,324,326,331,333,0.83,0.47,0.68*04
$GNGSA,2,M,407,410,419,421,422,427,428,0.83,0.47,0.68*0D
$GNGGA,122156.79,5741.1540,N,01153.1756,E,4,38,0.5,4.07,M,35.78,M,,*7A
$GNVTG,352.40,T,352.40,M,2.50,N,1.35,K,D*38
$PASHR,122156.79,211.09,T,,,,,,,3*09
$GNRMC,122156.79,A,5741.1540,N,01153.1756,E,2.50,352.40,030221,,W,D*1E
$GNZDA,122156.79,03,02,2021,,*75
$GPGSV,12,1,13,01,12,032,43,13,10,25,304,41,13,12,25,221,46,13,13,27,157,45*65
$GPGSV,12,2,13,14,23,059,42,13,15,48,200,46,13,17,41,091,47,13,19,35,123,47*67
$GPGSV,12,3,13,20,17,268,38,13,21,10,010,45,13,23,23,269,38,13,24,67,267,48*6A
$GPGSV,12,4,13,28,32,059,46,,,,,,,,,,,,,,,*55
$GLGSV,12,5,09,66,20,195,44,09,67,53,251,46,09,68,33,324,51,09,76,59,061,52*71
$GLGSV,12,6,09,77,61,268,34,09,78,08,256,39,09,84,06,349,37,09,85,31,042,49*78
$GLGSV,12,7,09,86,24,098,41,,,,,,,,,,,,,,,*48
$GAGSV,12,8,09,301,26,066,43,09,303,12,323,37,09,305,50,280,46,09,309,43,198,46*7F
$GAGSV,12,9,09,313,13,009,43,09,324,44,234,46,09,326,17,062,43,09,331,79,104,46*7B
$GAGSV,12,10,09,333,04,107,36,,,,,,,,,,,,,,,*4B
$GBGSV,12,11,07,407,04,053,41,07,410,25,060,45,07,419,22,213,39,07,421,18,327,40*4F
$GBGSV,12,12,07,422,39,272,41,07,427,23,114,44,07,428,27,057,49,,,,,*4C
$GNGSA,2,M,01,10,12,13,14,15,17,19,20,21,23,24,28,0.83,0.47,0.68*39
$GNGSA,2,M,66,67,68,76,77,78,84,85,86,0.83,0.47,0.68*35
$GNGSA,2,M,301,303,305,309,313,324,326,331,333,0.83,0.47,0.68*04
$GNGSA,2,M,407,410,419,421,422,427,428,0.83,0.47,0.68*0D
$GNGGA,122157.39,5741.1541,N,01153.1755,E,4,38,0.5,4.06,M,35.78,M,,*7C
$GNVTG,332.70,T,332.70,M,2.33,N,1.26,K,D*3F
$PASHR,122157.39,209.21,T,,,,,,,2*0E
$GNRMC,122157.39,A,5741.1541,N,01153.1755,E,2.33,332.70,030221,,W,D*19
$GNZDA,122157.39,03,02,2021,,*70
$GPGSV,12,1,13,01,12,032,44,13,10,25,304,42,13,12,25,221,45,13,13,27,157,45*62
$GPGSV,12,2,13,14,23,059,42,13,15,48,200,46,13,17,41,091,46,13,19,35,123,46*67
$GPGSV,12,3,13,20,17,268,37,13,21,10,010,45,13,23,23,269,35,13,24,67,267,48*68
$GPGSV,12,4,13,28,32,059,46,,,,,,,,,,,,,,,*55
$GLGSV,12,5,09,66,20,195,44,09,67,53,251,46,09,68,33,324,51,09,76,59,061,51*72
$GLGSV,12,6,09,77,61,268,34,09,78,08,256,39,09,84,06,349,37,09,85,31,042,49*78
$GLGSV,12,7,09,86,24,098,41,,,,,,,,,,,,,,,*48
$GAGSV,12,8,09,301,26,066,43,09,303,12,323,37,09,305,50,280,46,09,309,43,198,46*7F
$GAGSV,12,9,09,313,13,009,43,09,324,44,234,46,09,326,17,062,42,09,331,79,104,47*7B
$GAGSV,12,10,09,333,04,107,36,,,,,,,,,,,,,,,*4B
$GBGSV,12,11,07,407,04,053,41,07,410,25,060,45,07,419,22,213,41,07,421,18,327,43*43
$GBGSV,12,12,07,422,39,272,39,07,427,23,114,43,07,428,27,057,49,,,,,*44
$GNGSA,2,M,01,10,12,13,14,15,17,19,20,21,23,24,28,0.83,0.47,0.68*39
$GNGSA,2,M,66,67,68,76,77,78,84,85,86,0.83,0.47,0.68*35
$GNGSA,2,M,301,303,305,309,313,324,326,331,333,0.83,0.47,0.68*04
$GNGSA,2,M,407,410,419,421,422,427,428,0.83,0.47,0.68*0D
$GNGGA,122157.59,5741.1542,N,01153.1755,E,4,38,0.5,4.08,M,35.78,M,,*77
$GNVTG,341.26,T,341.26,M,1.99,N,1.07,K,D*3F
$PASHR,122157.59,207.52,T,,,,,,,2*02
$GNRMC,122157.59,A,5741.1542,N,01153.1755,E,1.99,341.26,030221,,W,D*18
$GNZDA,122157.59,03,02,2021,,*76
$GPGSV,12,1,13,01,12,032,42,13,10,25,304,43,13,12,25,221,43,13,13,27,157,46*60
$GPGSV,12,2,13,14,23,059,41,13,15,48,200,47,13,17,41,091,48,13,19,35,123,45*68
$GPGSV,12,3,13,20,17,268,40,13,21,10,010,45,13,23,23,269,38,13,24,67,267,48*65
$GPGSV,12,4,13,28,32,059,44,,,,,,,,,,,,,,,*57
$GLGSV,12,5,09,66,20,195,42,09,67,53,251,46,09,68,33,324,51,09,76,59,061,52*77
$GLGSV,12,6,09,77,61,268,34,09,78,08,256,42,09,84,06,349,34,09,85,31,042,48*76
$GLGSV,12,7,09,86,24,098,39,,,,,,,,,,,,,,,*47
$GAGSV,12,8,09,301,26,066,45,09,303,12,323,40,09,305,50,280,47,09,309,43,198,48*76
$GAGSV,12,9,09,313,13,009,44,09,324,44,234,44,09,326,17,062,43,09,331,79,104,47*7F
$GAGSV,12,10,09,333,04,107,37,,,,,,,,,,,,,,,*4A
$GBGSV,12,11,07,407,04,053,37,07,410,25,060,45,07,419,22,213,43,07,421,18,327,47*44
$GBGSV,12,12,07,422,39,272,45,07,427,23,114,42,07,428,27,057,50,,,,,*46
$GNGSA,2,M,01,10,12,13,14,15,17,19,20,21,23,24,28,0.83,0.47,0.68*39
$GNGSA,2,M,66,67,68,76,77,78,84,85,86,0.83,0.47,0.68*35
$GNGSA,2,M,301,303,305,309,313,324,326,331,333,0.83,0.47,0.68*04
$GNGSA,2,M,407,410,419,421,422,427,428,0.83,0.47,0.68*0D
$GNGGA,122158.39,5741.1542,N,01153.1755,E,4,38,0.5,4.08,M,35.78,M,,*7E
$GNVTG,346.02,T,346.02,M,1.94,N,1.05,K,D*30
$PASHR,122158.39,207.11,T,,,,,,,2*0C
$GNRMC,122158.39,A,5741.1542,N,01153.1755,E,1.94,346.02,030221,,W,D*1D
$GNZDA,122158.39,03,02,2021,,*7F
$GPGSV,12,1,13,01,12,032,40,13,10,25,304,44,13,12,25,221,42,13,13,27,157,45*67
$GPGSV,12,2,13,14,23,059,41,13,15,48,200,47,13,17,41,091,47,13,19,35,123,45*67
$GPGSV,12,3,13,20,17,268,39,13,21,10,010,45,13,23,23,269,38,13,24,67,267,48*6B
$GPGSV,12,4,13,28,32,059,45,,,,,,,,,,,,,,,*56
$GLGSV,12,5,09,66,20,195,42,09,67,53,251,45,09,68,33,324,51,09,76,59,061,53*75
$GLGSV,12,6,09,77,61,268,34,09,78,08,256,42,09,84,06,349,35,09,85,31,042,50*7E
$GLGSV,12,7,09,86,24,098,40,,,,,,,,,,,,,,,*49
$GAGSV,12,8,09,301,26,066,45,09,303,12,323,40,09,305,50,280,47,09,309,43,198,48*76
$GAGSV,12,9,09,313,13,009,45,09,324,44,234,43,09,326,17,062,43,09,331,79,104,46*78
$GAGSV,12,10,09,333,04,107,36,,,,,,,,,,,,,,,*4B
$GBGSV,12,11,07,407,04,053,37,07,410,25,060,45,07,419,22,213,43,07,421,18,327,48*4B
$GBGSV,12,12,07,422,39,272,44,07,427,23,114,42,07,428,27,057,50,,,,,*47
$GNGSA,2,M,01,10,12,13,14,15,17,19,20,21,23,24,28,0.83,0.47,0.68*39
$GNGSA,2,M,66,67,68,76,77,78,84,85,86,0.83,0.47,0.68*35
$GNGSA,2,M,301,303,305,309,313,324,326,331,333,0.83,0.47,0.68*04
$GNGSA,2,M,407,410,419,421,422,427,428,0.83,0.47,0.68*0D
$GNGGA,122158.59,5741.1543,N,01153.1754,E,4,38,0.5,4.08,M,35.78,M,,*78
$GNVTG,341.42,T,341.42,M,1.89,N,1.02,K,D*3B
$PASHR,122158.59,204.89,T,,,,,,,2*08
$GNRMC,122158.59,A,5741.1543,N,01153.1754,E,1.89,341.42,030221,,W,D*14
$GNZDA,122158.59,03,02,2021,,*79
$GPGSV,12,1,13,01,12,032,40,13,10,25,304,44,13,12,25,221,42,13,13,27,157,47*65
$GPGSV,12,2,13,14,23,059,42,13,15,48,200,47,13,17,41,091,47,13,19,35,123,45*64
$GPGSV,12,3,13,20,17,268,38,13,21,10,010,44,13,23,23,269,38,13,24,67,267,48*6B
$GPGSV,12,4,13,28,32,059,45,,,,,,,,,,,,,,,*56
$GLGSV,12,5,09,66,20,195,41,09,67,53,251,44,09,68,33,324,51,09,76,59,061,53*77
$GLGSV,12,6,09,77,61,268,34,09,78,08,256,39,09,84,06,349,35,09,85,31,042,49*7A
$GLGSV,12,7,09,86,24,098,40,,,,,,,,,,,,,,,*49
$GAGSV,12,8,09,301,26,066,44,09,303,12,323,41,09,305,50,280,47,09,309,43,198,48*76
$GAGSV,12,9,09,313,13,009,45,09,324,44,234,42,09,326,17,062,43,09,331,79,104,46*79
$GAGSV,12,10,09,333,04,107,37,,,,,,,,,,,,,,,*4A
$GBGSV,12,11,07,407,04,053,38,07,410,25,060,45,07,419,22,213,44,07,421,18,327,47*4C
$GBGSV,12,12,07,422,39,272,45,07,427,23,114,41,07,428,27,057,49,,,,,*4D
$GNGSA,2,M,01,10,12,13,14,15,17,19,20,21,23,24,28,0.83,0.47,0.68*39
$GNGSA,2,M,66,67,68,76,77,78,84,85,86,0.83,0.47,0.68*35
$GNGSA,2,M,301,303,305,309,313,324,326,331,333,0.83,0.47,0.68*04
$GNGSA,2,M,407,410,419,421,422,427,428,0.83,0.47,0.68*0D
$GNGGA,122158.79,5741.1543,N,01153.1754,E,4,38,0.5,4.03,M,35.78,M,,*71
$GNVTG,334.47,T,334.47,M,1.99,N,1.08,K,D*30
$PASHR,122158.79,204.33,T,,,,,,,2*0B
$GNRMC,122158.79,A,5741.1543,N,01153.1754,E,1.99,334.47,030221,,W,D*10
$GNZDA,122158.79,03,02,2021,,*7B
$GPGSV,12,1,13,01,12,032,42,13,10,25,304,44,13,12,25,221,41,13,13,27,157,46*65
$GPGSV,12,2,13,14,23,059,42,13,15,48,200,47,13,17,41,091,47,13,19,35,123,45*64
$GPGSV,12,3,13,20,17,268,38,13,21,10,010,44,13,23,23,269,38,13,24,67,267,47*64
$GPGSV,12,4,13,28,32,059,44,,,,,,,,,,,,,,,*57
$GLGSV,12,5,09,66,20,195,41,09,67,53,251,44,09,68,33,324,51,09,76,59,061,53*77
$GLGSV,12,6,09,77,61,268,34,09,78,08,256,38,09,84,06,349,35,09,85,31,042,49*7B
$GLGSV,12,7,09,86,24,098,40,,,,,,,,,,,,,,,*49
$GAGSV,12,8,09,301,26,066,44,09,303,12,323,43,09,305,50,280,47,09,309,43,198,48*74
$GAGSV,12,9,09,313,13,009,45,09,324,44,234,42,09,326,17,062,43,09,331,79,104,46*79
$GAGSV,12,10,09,333,04,107,39,,,,,,,,,,,,,,,*44
$GBGSV,12,11,07,407,04,053,38,07,410,25,060,45,07,419,22,213,45,07,421,18,327,47*4D
$GBGSV,12,12,07,422,39,272,45,07,427,23,114,41,07,428,27,057,48,,,,,*4C
$GNGSA,2,M,01,10,12,13,14,15,17,19,20,21,23,24,28,0.83,0.47,0.68*39
$GNGSA,2,M,66,67,68,76,77,78,84,85,86,0.83,0.47,0.68*35
$GNGSA,2,M,301,303,305,309,313,324,326,331,333,0.83,0.47,0.68*04
$GNGSA,2,M,407,410,419,421,422,427,428,0.83,0.47,0.68*0D
$GNGGA,122158.99,5741.1543,N,01153.1754,E,4,38,0.5,4.03,M,35.78,M,,*7F
$GNVTG,331.85,T,331.85,M,2.06,N,1.11,K,D*3D
$PASHR,122158.99,204.03,T,,,,,,,2*06
$GNRMC,122158.99,A,5741.1543,N,01153.1754,E,2.06,331.85,030221,,W,D*10
$GNZDA,122158.99,03,02,2021,,*75
$GPGSV,12,1,13,01,12,032,41,13,10,25,304,45,13,12,25,221,41,13,13,27,157,45*64
$GPGSV,12,2,13,14,23,059,42,13,15,48,200,46,13,17,41,091,48,13,19,35,123,44*6B
$GPGSV,12,3,13,20,17,268,39,13,21,10,010,44,13,23,23,269,38,13,24,67,267,47*65
$GPGSV,12,4,13,28,32,059,44,,,,,,,,,,,,,,,*57
$GLGSV,12,5,09,66,20,195,41,09,67,53,251,45,09,68,33,324,50,09,76,59,061,54*70
$GLGSV,12,6,09,77,61,268,34,09,78,08,256,39,09,84,06,349,37,09,85,31,042,49*78
$GLGSV,12,7,09,86,24,098,40,,,,,,,,,,,,,,,*49
$GAGSV,12,8,09,301,26,066,44,09,303,12,323,44,09,305,50,280,46,09,309,43,198,48*72
$GAGSV,12,9,09,313,13,009,44,09,324,44,234,42,09,326,17,062,43,09,331,79,104,46*78
$GAGSV,12,10,09,333,04,107,39,,,,,,,,,,,,,,,*44
$GBGSV,12,11,07,407,04,053,41,07,410,25,060,45,07,419,22,213,45,07,421,18,327,47*43
$GBGSV,12,12,07,422,39,272,43,07,427,23,114,42,07,428,27,057,48,,,,,*49
$GNGSA,2,M,01,10,12,13,14,15,17,19,20,21,23,24,28,0.83,0.47,0.68*39
$GNGSA,2,M,66,67,68,76,77,78,84,85,86,0.83,0.47,0.68*35
$GNGSA,2,M,301,303,305,309,313,324,326,331,333,0.83,0.47,0.68*04
$GNGSA,2,M,407,410,419,421,422,427,428,0.83,0.47,0.68*0D
$GNGGA,122159.39,5741.1544,N,01153.1753,E,4,38,0.5,4.05,M,35.78,M,,*72
$GNVTG,328.71,T,328.71,M,2.32,N,1.25,K,D*3D
$PASHR,122159.39,203.14,T,,,,,,,2*0C
$GNRMC,122159.39,A,5741.1544,N,01153.1753,E,2.32,328.71,030221,,W,D*1F
$GNZDA,122159.39,03,02,2021,,*7E
$GPGSV,12,1,13,01,12,032,41,13,10,25,304,44,13,12,25,221,41,13,13,27,157,45*65
$GPGSV,12,2,13,14,23,059,42,13,15,48,200,46,13,17,41,091,48,13,19,35,123,44*6B
$GPGSV,12,3,13,20,17,268,40,13,21,10,010,43,13,23,23,269,38,13,24,67,267,47*6C
$GPGSV,12,4,13,28,32,059,45,,,,,,,,,,,,,,,*56
$GLGSV,12,5,09,66,20,195,42,09,67,53,251,45,09,68,33,324,48,09,76,59,061,54*7A
$GLGSV,12,6,09,77,61,268,34,09,78,08,256,42,09,84,06,349,38,09,85,31,042,50*73
$GLGSV,12,7,09,86,24,098,40,,,,,,,,,,,,,,,*49
$GAGSV,12,8,09,301,26,066,44,09,303,12,323,41,09,305,50,280,46,09,309,43,198,48*77
$GAGSV,12,9,09,313,13,009,44,09,324,44,234,42,09,326,17,062,42,09,331,79,104,46*79
$GAGSV,12,10,09,333,04,107,39,,,,,,,,,,,,,,,*44
$GBGSV,12,11,07,407,04,053,41,07,410,25,060,45,07,419,22,213,45,07,421,18,327,47*43
$GBGSV,12,12,07,422,39,272,44,07,427,23,114,40,07,428,27,057,49,,,,,*4D
$GNGSA,2,M,01,10,12,13,14,15,17,19,20,21,23,24,28,0.83,0.47,0.68*39
$GNGSA,2,M,66,67,68,76,77,78,84,85,86,0.83,0.47,0.68*35
$GNGSA,2,M,301,303,305,309,313,324,326,331,333,0.83,0.47,0.68*04
$GNGSA,2,M,407,410,419,421,422,427,428,0.83,0.47,0.68*0D
$GNGGA,122159.59,5741.1544,N,01153.1753,E,4,38,0.5,4.04,M,35.78,M,,*75
$GNVTG,333.78,T,333.78,M,1.98,N,1.07,K,D*3E
$PASHR,122159.59,202.45,T,,,,,,,2*0F
$GNRMC,122159.59,A,5741.1544,N,01153.1753,E,1.98,333.78,030221,,W,D*19
$GNZDA,122159.59,03,02,2021,,*78
$GPGSV,12,1,13,01,12,032,42,13,10,25,304,45,13,12,25,221,41,13,13,27,157,44*66
$GPGSV,12,2,13,14,23,059,42,13,15,48,200,47,13,17,41,091,49,13,19,35,123,45*6A
$GPGSV,12,3,13,20,17,268,40,13,21,10,010,43,13,23,23,269,37,13,24,67,267,47*63
$GPGSV,12,4,13,28,32,059,46,,,,,,,,,,,,,,,*55
$GLGSV,12,5,09,66,20,195,44,09,67,53,251,46,09,68,33,324,50,09,76,59,061,53*71
$GLGSV,12,6,09,77,61,268,35,09,78,08,256,42,09,84,06,349,38,09,85,31,042,50*72
$GLGSV,12,7,09,86,24,098,40,,,,,,,,,,,,,,,*49
$GAGSV,12,8,09,301,26,066,45,09,303,12,323,42,09,305,50,280,46,09,309,43,198,47*7A
$GAGSV,12,9,09,313,13,009,44,09,324,44,234,44,09,326,17,062,42,09,331,79,104,47*7E
$GAGSV,12,10,09,333,04,107,39,,,,,,,,,,,,,,,*44
$GBGSV,12,11,07,407,04,053,42,07,410,25,060,45,07,419,22,213,46,07,421,18,327,47*43
$GBGSV,12,12,07,422,39,272,47,07,427,23,114,40,07,428,27,057,48,,,,,*4F
$GNGSA,2,M,01,10,12,13,14,15,17,19,20,21,23,24,28,0.83,0.47,0.68*39
$GNGSA,2,M,66,67,68,76,77,78,84,85,86,0.83,0.47,0.68*35
$GNGSA,2,M,301,303,305,309,313,324,326,331,333,0.83,0.47,0.68*04
$GNGSA,2,M,407,410,419,421,422,427,428,0.83,0.47,0.68*0D
$GNGGA,122159.99,5741.1545,N,01153.1753,E,4,38,0.5,4.03,M,35.78,M,,*7F
$GNVTG,341.78,T,341.78,M,1.72,N,0.93,K,D*36
$PASHR,122159.99,201.64,T,,,,,,,2*03
$GNRMC,122159.99,A,5741.1545,N,01153.1753,E,1.72,341.78,030221,,W,D*15
$GNZDA,122159.99,03,02,2021,,*74
$GPGSV,12,1,13,01,12,032,42,13,10,25,304,44,13,12,25,221,41,13,13,27,157,44*67
$GPGSV,12,2,13,14,23,059,42,13,15,48,200,47,13,17,41,091,49,13,19,35,123,46*69
$GPGSV,12,3,13,20,17,268,39,13,21,10,010,43,13,23,23,269,38,13,24,67,267,47*62
$GPGSV,12,4,13,28,32,059,46,,,,,,,,,,,,,,,*55
$GLGSV,12,5,09,66,20,195,45,09,67,53,251,46,09,68,33,324,50,09,76,59,061,53*70
$GLGSV,12,6,09,77,61,268,35,09,78,08,256,42,09,84,06,349,38,09,85,31,042,51*73
$GLGSV,12,7,09,86,24,098,40,,,,,,,,,,,,,,,*49
$GAGSV,12,8,09,301,26,066,45,09,303,12,323,42,09,305,50,280,46,09,309,43,198,47*7A
$GAGSV,12,9,09,313,13,009,44,09,324,44,234,43,09,326,17,062,42,09,331,79,104,46*78
$GAGSV,12,10,09,333,04,107,39,,,,,,,,,,,,,,,*44
$GBGSV,12,11,07,407,04,053,42,07,410,25,060,44,07,419,22,213,46,07,421,18,327,48*4D
$GBGSV,12,12,07,422,39,272,47,07,427,23,114,42,07,428,27,057,48,,,,,*4D
$GNGSA,2,M,01,10,12,13,14,15,17,19,20,21,23,24,28,0.83,0.47,0.68*39
$GNGSA,2,M,66,67,68,76,77,78,84,85,86,0.83,0.47,0.68*35
$GNGSA,2,M,301,303,305,309,313,324,326,331,333,0.83,0.47,0.68*04
$GNGSA,2,M,407,410,419,421,422,427,428,0.83,0.47,0.68*0D
$GNGGA,122200.19,5741.1545,N,01153.1753,E,4,38,0.5,4.03,M,35.78,M,,*78
$GNVTG,345.87,T,345.87,M,1.64,N,0.89,K,D*3A
$PASHR,122200.19,200.50,T,,,,,,,2*02
$GNRMC,122200.19,A,5741.1545,N,01153.1753,E,1.64,345.87,030221,,W,D*11
$GNZDA,122200.19,03,02,2021,,*73
$GNGGA,122200.61,5741.1546,N,01153.1752,E,4,-1,,4.03,M,35.78,M,,*49
$GNVTG,339.88,T,339.88,M,1.93,N,1.04,K,D*36
$PASHR,122200.61,199.28,T,,,,,,,2*01
$GPGSV,12,1,13,01,12,032,45,13,10,25,304,44,13,12,25,221,44,13,13,27,157,45*64
$GPGSV,12,2,13,14,23,059,41,13,15,48,200,47,13,17,41,091,49,13,19,35,123,44*68
$GPGSV,12,3,13,20,17,268,34,13,21,10,010,44,13,23,23,269,39,13,24,67,267,46*68
$GPGSV,12,4,13,28,32,059,44,,,,,,,,,,,,,,,*57
$GLGSV,12,5,09,66,20,195,49,09,67,53,251,47,09,68,33,324,51,09,76,59,061,54*7B
$GLGSV,12,6,09,77,61,268,35,09,78,08,256,43,09,84,06,349,38,09,85,31,042,51*72
$GLGSV,12,7,09,86,24,098,39,,,,,,,,,,,,,,,*47
$GAGSV,12,8,09,301,26,066,46,09,303,12,323,37,09,305,50,280,45,09,309,43,198,46*79
$GAGSV,12,9,09,313,13,009,43,09,324,44,234,42,09,326,17,062,43,09,331,79,104,46*7F
$GAGSV,12,10,09,333,04,107,38,,,,,,,,,,,,,,,*45
$GBGSV,12,11,07,407,04,053,40,07,410,25,060,44,07,419,22,213,44,07,421,18,327,47*42
$GBGSV,12,12,07,422,39,272,46,07,427,23,114,41,07,428,27,057,49,,,,,*4E
$GNGSA,2,M,01,10,12,13,14,15,17,19,20,21,23,24,28,0.83,0.47,0.68*39
$GNGSA,2,M,66,67,68,76,77,78,84,85,86,0.83,0.47,0.68*35
$GNGSA,2,M,301,303,305,309,313,324,326,331,333,0.83,0.47,0.68*04
$GNGSA,2,M,407,410,419,421,422,427,428,0.83,0.47,0.68*0D
$GNGGA,122201.39,5741.1546,N,01153.1752,E,4,38,0.5,4.03,M,35.78,M,,*79
$GNVTG,339.69,T,339.69,M,2.00,N,1.08,K,D*33
$PASHR,122201.39,198.86,T,,,,,,,2*08
$GNRMC,122201.39,A,5741.1546,N,01153.1752,E,2.00,339.69,030221,,W,D*1A
$GNZDA,122201.39,03,02,2021,,*70
$GPGSV,12,1,13,01,12,032,45,13,10,25,304,44,13,12,25,221,45,13,13,27,157,44*64
$GPGSV,12,2,13,14,23,059,41,13,15,48,200,47,13,17,41,091,47,13,19,35,123,45*67
$GPGSV,12,3,13,20,17,268,33,13,21,10,010,44,13,23,23,269,39,13,24,67,267,46*6F
$GPGSV,12,4,13,28,32,059,43,,,,,,,,,,,,,,,*50
$GLGSV,12,5,09,66,20,195,49,09,67,53,251,47,09,68,33,324,51,09,76,59,061,54*7B
$GLGSV,12,6,09,77,61,268,34,09,78,08,256,44,09,84,06,349,38,09,85,31,042,51*74
$GLGSV,12,7,09,86,24,098,39,,,,,,,,,,,,,,,*47
$GAGSV,12,8,09,301,26,066,46,09,303,12,323,35,09,305,50,280,44,09,309,43,198,45*79
$GAGSV,12,9,09,313,13,009,44,09,324,44,234,43,09,326,17,062,43,09,331,79,104,46*79
$GAGSV,12,10,09,333,04,107,38,,,,,,,,,,,,,,,*45
$GBGSV,12,11,07,407,04,053,40,07,410,25,060,44,07,419,22,213,43,07,421,18,327,48*4A
$GBGSV,12,12,07,422,39,272,46,07,427,23,114,41,07,428,27,057,49,,,,,*4E
$GNGSA,2,M,01,10,12,13,14,15,17,19,20,21,23,24,28,0.83,0.47,0.68*39
$GNGSA,2,M,66,67,68,76,77,78,84,85,86,0.83,0.47,0.68*35
$GNGSA,2,M,301,303,305,309,313,324,326,331,333,0.83,0.47,0.68*04
$GNGSA,2,M,407,410,419,421,422,427,428,0.83,0.47,0.68*0D
$GNGGA,122201.59,5741.1547,N,01153.1751,E,4,38,0.5,4.02,M,35.78,M,,*7C
$GNVTG,318.87,T,318.87,M,2.21,N,1.19,K,D*30
$PASHR,122201.59,197.37,T,,,,,,,2*0B
$GNRMC,122201.59,A,5741.1547,N,01153.1751,E,2.21,318.87,030221,,W,D*1E
$GNZDA,122201.59,03,02,2021,,*76
$GNGGA,122202.01,5741.1548,N,01153.1750,E,4,-1,,3.98,M,35.78,M,,*44
$GNVTG,313.03,T,313.03,M,2.46,N,1.33,K,D*39
$PASHR,122202.01,195.81,T,,,,,,,2*0A
$GPGSV,11,1,12,01,12,032,43,12,10,25,304,41,12,12,25,221,45,12,13,27,157,42*62
$GPGSV,11,2,12,14,23,059,41,12,15,48,200,48,12,17,41,091,49,12,19,35,123,45*65
$GPGSV,11,3,12,21,10,010,42,12,23,23,269,40,12,24,68,267,44,12,28,32,059,43*61
$GLGSV,11,4,09,66,20,195,46,09,67,53,251,49,09,68,33,324,52,09,76,59,061,50*7F
$GLGSV,11,5,09,77,61,268,37,09,78,08,256,43,09,84,05,349,36,09,85,31,042,51*7D
$GLGSV,11,6,09,86,24,098,40,,,,,,,,,,,,,,,*4B
$GAGSV,11,7,09,301,26,066,46,09,303,12,323,36,09,305,50,280,45,09,309,43,198,47*75
$GAGSV,11,8,09,313,13,009,44,09,324,44,234,45,09,326,17,062,44,09,331,79,104,46*7A
$GAGSV,11,9,09,333,04,107,39,,,,,,,,,,,,,,,*7F
$GBGSV,11,10,07,407,04,053,39,07,410,25,060,44,07,419,22,213,38,07,421,18,327,46*44
$GBGSV,11,11,07,422,39,272,49,07,427,23,114,46,07,428,27,057,50,,,,,*4E
$GNGSA,2,M,01,10,12,13,14,15,17,19,21,23,24,28,0.84,0.48,0.69*1E
$GNGSA,2,M,66,67,68,76,77,78,84,85,86,0.84,0.48,0.69*3C
$GNGSA,2,M,301,303,305,309,313,324,326,331,333,0.84,0.48,0.69*0D
$GNGSA,2,M,407,410,419,421,422,427,428,0.84,0.48,0.69*04
$GNGGA,122202.79,5741.1548,N,01153.1749,E,4,37,0.5,3.97,M,35.78,M,,*7F
$GNVTG,312.20,T,312.20,M,2.49,N,1.35,K,D*30
$PASHR,122202.79,195.51,T,,,,,,,2*08
$GNRMC,122202.79,A,5741.1548,N,01153.1749,E,2.49,312.20,030221,,W,D*10
$GNZDA,122202.79,03,02,2021,,*77
$MXPGN,01FF2C,780A,000000009F411700*12
$GPGSV,11,1,12,01,12,032,42,12,10,25,304,42,12,12,25,221,45,12,13,27,157,44*66
$GPGSV,11,2,12,14,23,059,41,12,15,48,200,48,12,17,41,091,49,12,19,35,123,46*66
$GPGSV,11,3,12,21,10,010,43,12,23,23,269,40,12,24,68,267,43,12,28,32,059,40*64
$GLGSV,11,4,09,66,20,195,47,09,67,53,251,49,09,68,33,324,52,09,76,59,061,50*7E
$GLGSV,11,5,09,77,61,268,38,09,78,08,256,45,09,84,05,349,36,09,85,31,042,50*75
$GLGSV,11,6,09,86,24,098,40,,,,,,,,,,,,,,,*4B
$GAGSV,11,7,09,301,26,066,45,09,303,12,323,38,09,305,50,280,45,09,309,43,198,47*78
$GAGSV,11,8,09,313,13,009,44,09,324,44,234,45,09,326,17,062,44,09,331,79,104,47*7B
$GAGSV,11,9,09,333,04,107,39,,,,,,,,,,,,,,,*7F
$GBGSV,11,10,07,407,04,053,39,07,410,25,060,44,07,419,22,213,38,07,421,18,327,47*45
$GBGSV,11,11,07,422,39,272,48,07,427,23,114,47,07,428,27,057,49,,,,,*46
$GNGSA,2,M,01,10,12,13,14,15,17,19,21,23,24,28,0.84,0.48,0.69*1E
$GNGSA,2,M,66,67,68,76,77,78,84,85,86,0.84,0.48,0.69*3C
$GNGSA,2,M,301,303,305,309,313,324,326,331,333,0.84,0.48,0.69*0D
$GNGSA,2,M,407,410,419,421,422,427,428,0.84,0.48,0.69*04
$GNGGA,122202.99,5741.1549,N,01153.1749,E,4,37,0.5,4.03,M,35.78,M,,*7A
$GNVTG,351.73,T,351.73,M,1.39,N,0.75,K,D*31
$PASHR,122202.99,193.77,T,,,,,,,2*04
$GNRMC,122202.99,A,5741.1549,N,01153.1749,E,1.39,351.73,030221,,W,D*1A
$GNZDA,122202.99,03,02,2021,,*79
$MXPGN,01FF2C,780A,FFFF7FFFFFFF0001*1E
$MXPGN,01FF2C,780A,307FFFFFFFFFFF02*1E
$MXPGN,01FF2C,780A,FFFFFFFF2E302C03*68
$MXPGN,01F200,2838,FFFF7F04380D1400*1B
$HCHDG,174.99,0.00,E,,*2B
$HEHDT,193.40,T*10
$PFEC,GPatt,,-1.34,+1.04*63
$AGRSA,-1.02,A,,V*61
$MXPGN,01F200,2856,FFFF7F00000CC501*69
$MXPGN,00FF3D,680A,FFFFFF0EFFFF9F41*67
$MXPGN,00FF3D,680A,FFFFFF02FFFF9F41*10
$MXPGN,01F200,2838,FFFF7F04380D1C00*6C
$HCHDG,174.99,0.00,E,,*2B
$HEHDT,193.40,T*10
$PFEC,GPatt,,-1.34,+1.03*64
$WIMDA,29.82,I,1.010,B,,C,,C,,,,,,T,,M,,N,,M*46
$GPGSV,11,1,12,01,12,032,42,12,10,25,304,42,12,12,25,221,45,12,13,27,157,44*66
$GPGSV,11,2,12,14,23,059,41,12,15,48,200,48,12,17,41,091,48,12,19,35,123,45*64
$GPGSV,11,3,12,21,10,010,43,12,23,23,269,40,12,24,68,267,43,12,28,32,059,42*66
$GLGSV,11,4,09,66,20,195,46,09,67,53,251,49,09,68,33,324,52,09,76,59,061,51*7E
$GLGSV,11,5,09,77,61,268,38,09,78,08,256,45,09,84,05,349,35,09,85,31,042,49*7E
$GLGSV,11,6,09,86,24,098,40,,,,,,,,,,,,,,,*4B
$GAGSV,11,7,09,301,26,066,45,09,303,12,323,38,09,305,50,280,45,09,309,43,198,48*77
$GAGSV,11,8,09,313,13,009,44,09,324,44,234,45,09,326,17,062,44,09,331,79,104,45*79
$GAGSV,11,9,09,333,04,107,39,,,,,,,,,,,,,,,*7F
$GBGSV,11,10,07,407,04,053,39,07,410,25,060,44,07,419,22,213,40,07,421,18,327,47*4A
$GBGSV,11,11,07,422,39,272,48,07,427,23,114,47,07,428,27,057,49,,,,,*46
$GNGSA,2,M,01,10,12,13,14,15,17,19,21,23,24,28,0.84,0.48,0.69*1E
$GNGSA,2,M,66,67,68,76,77,78,84,85,86,0.84,0.48,0.69*3C
$GNGSA,2,M,301,303,305,309,313,324,326,331,333,0.84,0.48,0.69*0D
$GNGSA,2,M,407,410,419,421,422,427,428,0.84,0.48,0.69*04
$GNGGA,122203.19,5741.1549,N,01153.1748,E,4,37,0.5,4.03,M,35.78,M,,*72
$GNVTG,342.80,T,342.80,M,1.32,N,0.71,K,D*3E
$PASHR,122203.19,193.27,T,,,,,,,2*08
$GNRMC,122203.19,A,5741.1549,N,01153.1748,E,1.32,342.80,030221,,W,D*17
$GNZDA,122203.19,03,02,2021,,*70
$MXPGN,01F200,2838,FFFF7F04380D2C00*6F
$HCHDG,174.99,0.00,E,,*2B
$HEHDT,191.00,T*16
$PFEC,GPatt,,-1.34,+1.02*65
$MXPGN,01F200,2856,FFFF7F00000CB201*6F
$MXPGN,01F201,2838,630D670F50001AA0*17
$MXPGN,01F201,2838,FFFF002D0A3C88A1*12
$MXPGN,01F201,2838,7F0030FFFFFFFFA2*14
$MXPGN,01F201,2738,090800000000A3*69
$MXPGN,00FF3D,680A,FFFFFF0EFFFF9F41*67
$MXPGN,00FF3D,680A,FFFFFF02FFFF9F41*10
$MXPGN,01F214,6838,FFFFFF7FFF0A3C00*65
$MXPGN,01F200,2838,FFFF7F04380D0F00*68
$HCHDG,174.99,0.00,E,,*2B
$HEHDT,191.00,T*16
$PFEC,GPatt,,-1.34,+1.01*66
$GPGSV,11,1,12,01,12,032,42,12,10,25,304,43,12,12,25,221,46,12,13,27,157,44*64
$GPGSV,11,2,12,14,23,059,43,12,15,48,200,48,12,17,41,091,49,12,19,35,123,45*67
$GPGSV,11,3,12,21,10,010,44,12,23,23,269,39,12,24,68,267,43,12,28,32,059,44*69
$GLGSV,11,4,09,66,20,195,46,09,67,53,251,48,09,68,33,324,52,09,76,59,061,51*7F
$GLGSV,11,5,09,77,61,268,39,09,78,08,256,44,09,84,05,349,35,09,85,31,042,48*7F
$GLGSV,11,6,09,86,24,098,40,,,,,,,,,,,,,,,*4B
$GAGSV,11,7,09,301,26,066,45,09,303,12,323,38,09,305,50,280,44,09,309,43,198,48*76
$GAGSV,11,8,09,313,13,009,44,09,324,44,234,45,09,326,17,062,45,09,331,79,104,46*7B
$GAGSV,11,9,09,333,04,107,39,,,,,,,,,,,,,,,*7F
$GBGSV,11,10,07,407,04,053,38,07,410,25,060,44,07,419,22,213,40,07,421,18,327,46*4A
$GBGSV,11,11,07,422,39,272,48,07,427,23,114,48,07,428,27,057,49,,,,,*49
$GNGSA,2,M,01,10,12,13,14,15,17,19,21,23,24,28,0.84,0.48,0.69*1E
$GNGSA,2,M,66,67,68,76,77,78,84,85,86,0.84,0.48,0.69*3C
$GNGSA,2,M,301,303,305,309,313,324,326,331,333,0.84,0.48,0.69*0D
$GNGSA,2,M,407,410,419,421,422,427,428,0.84,0.48,0.69*04
$GNGGA,122203.39,5741.1549,N,01153.1748,E,4,37,0.5,4.03,M,35.78,M,,*70
$GNVTG,337.25,T,337.25,M,1.52,N,0.82,K,D*34
$PASHR,122203.39,192.70,T,,,,,,,2*09
$GNRMC,122203.39,A,5741.1549,N,01153.1748,E,1.52,337.25,030221,,W,D*1E
$GNZDA,122203.39,03,02,2021,,*72
$MXPGN,01F214,6856,FFFFFF7FFF09C401*13
$MXPGN,01F200,2838,FFFF7F04380D1300*1C
$MXPGN,00FF19,7809,0000000003019F41*16
$HCHDG,174.99,0.00,E,,*2B
$HEHDT,191.00,T*16
$PFEC,GPatt,,-1.35,+0.99*67
$TIROT,-156.00,A*24
$VDVBW,,,A,,,A,,A,,A*51
$MXPGN,01F201,2856,9B0D2208E5011AA0*6A
$MXPGN,01F201,2856,B92C003E7FFF85A1*6D
$MXPGN,01F201,2856,7FFFFFFFFF0137A2*1A
$MXPGN,01F201,2756,7F1500000000A3*15
$MXPGN,01F200,2856,FFFF7F00000CB901*64
$MXPGN,00FF3D,680A,FFFFFF0EFFFF9F41*67
$MXPGN,00FF3D,680A,FFFFFF02FFFF9F41*10
$MXPGN,01FF05,780A,310A0D0099138720*12
$MXPGN,01FF05,780A,2C302E3935343421*10
$MXPGN,01FF05,780A,302E302C322E3022*69
$MXPGN,01FF05,780A,2E302C302E302C23*18
$MXPGN,01FF05,780A,2C30302E302C3024*6B
$MXPGN,01FF05,780A,2D2C302E31393125*64
$MXPGN,01F200,2838,FFFF7F04380D3200*1F
$MXPGN,01FF05,780A,322D2C30362E3226*68
$MXPGN,01FF05,780A,302E312C36362E27*6F
$MXPGN,01FF05,780A,2E302C302E312C28*12
$MXPGN,01FF05,780A,302E302C302C3029*66
$MXPGN,01FF05,780A,302C30372E312C2A*18
$MXPGN,01FF05,780A,2C302E302C302E2B*69
$MXPGN,01FF05,780A,302E302C302E302C*1A
$MXPGN,01FF05,780A,2E302C332E302C2D*6C
$MXPGN,01FF05,780A,2C30302E302C302E*1A
$MXPGN,01FF05,780A,393538362E37352F*19
$MXPGN,01FF05,780A,38382E31312C3330*1F
$MXPGN,01FF05,780A,482C302C33323631*13
$MXPGN,01FF05,780A,302C445053204932*65
$MXPGN,01FF05,780A,FFFFFFFF2C302E33*1F
$HCHDG,174.99,0.00,E,,*2B
$HEHDT,191.00,T*16
$PFEC,GPatt,,-1.35,+0.99*67
$AGRSA,0.93,A,,V*45
$MXPGN,01F200,2838,FFFF7F04380D1600*19
$HCHDG,174.99,0.00,E,,*2B
$HEHDT,191.00,T*16
$PFEC,GPatt,,-1.35,+0.98*66
$MXPGN,01F200,2856,FFFF7F00000CBD01*19
$PSMDSTAT,1230,7,5,0,0,0,0,0*2A
$MXPGN,01F200,2838,FFFF7F04380D1100*1E
$HCHDG,174.99,0.00,E,,*2B
$HEHDT,191.00,T*16
$PFEC,GPatt,,-1.35,+0.98*66
$MXPGN,00FF3D,680A,FFFFFF0EFFFF9F41*67
$MXPGN,00FF3D,680A,FFFFFF02FFFF9F41*10
$MXPGN,01F201,2838,630D670F50001AC0*15
$MXPGN,01F201,2838,FFFF002F0A3C88C1*12
$MXPGN,01F201,2838,7F0030FFFFFFFFC2*16
$MXPGN,01F201,2738,070700000000C3*6A
$MXPGN,01F200,2838,FFFF7F04380D2900*15
$HCHDG,174.99,0.00,E,,*2B
$HEHDT,191.00,T*16
$PFEC,GPatt,,-1.36,+0.98*65
$MXPGN,01F200,2856,FFFF7F00000CBF01*1B
$MXPGN,01F200,2838,FFFF7F04380D1C00*6C
$MXPGN,00FF19,7809,000000000B019F41*67
$HCHDG,174.99,0.00,E,,*2B
$HEHDT,191.00,T*16
$PFEC,GPatt,,-1.36,+0.99*64
$TIROT,-154.80,A*2E
$VDVBW,,,A,,,A,,A,,A*51
$MXPGN,00FF19,380A,000000080A649F41*13
$MXPGN,00FF19,380A,0000010202649F41*6B
$MXPGN,00FF3D,680A,FFFFFF0EFFFF9F41*67
$MXPGN,00FF3D,680A,FFFFFF02FFFF9F41*10
$MXPGN,01F201,2856,9B0D220907011AC0*1E
$MXPGN,01F201,2856,B92C003E7FFF85C1*6F
$MXPGN,01F201,2856,7FFFFFFFFF0137C2*18
$MXPGN,01F201,2756,7F1400000000C3*16
$MXPGN,01F200,2838,FFFF7F04380D1100*1E
$HCHDG,174.99,0.00,E,,*2B
$HEHDT,191.00,T*16
$PFEC,GPatt,,-1.36,+1.00*65
$AGRSA,1.68,A,,V*40
$MXPGN,01FF2C,780A,000000009F411720*10
$MXPGN,01FF2C,780A,FFFF7FFFFFFF0021*1C
$MXPGN,01FF2C,780A,307FFFFFFFFFFF22*1C
$MXPGN,01FF2C,780A,FFFFFFFF2E302C23*6A
$MXPGN,01F200,2856,FFFF7F00000CBD01*19
$MXPGN,01F200,2838,FFFF7F04380D1900*16
$HCHDG,174.99,0.00,E,,*2B
$HEHDT,191.00,T*16
$PFEC,GPatt,,-1.36,+1.01*64
$WIMDA,29.82,I,1.010,B,,C,,C,,,,,,T,,M,,N,,M*46
$MXPGN,00FF3D,680A,FFFFFF0EFFFF9F41*67
$MXPGN,00FF3D,680A,FFFFFF02FFFF9F41*10
$MXPGN,01F200,2838,FFFF7F04380D2D00*68
$HCHDG,174.99,0.00,E,,*2B
$HEHDT,188.80,T*16
$PFEC,GPatt,,-1.36,+1.02*67
$MXPGN,01F200,2856,FFFF7F00000CC301*6F
$MXPGN,01F201,2838,630D670F50001AE0*13
$MXPGN,01F201,2838,FFFF002C0A3C88E1*11
$MXPGN,01F201,2838,7F0030FFFFFFFFE2*10
$MXPGN,01F201,2738,090800000000E3*6D
$GPGSV,12,1,13,01,12,032,42,13,10,25,304,42,13,12,25,221,46,13,13,27,157,45*67
$GPGSV,12,2,13,14,23,059,44,13,15,48,200,47,13,17,41,091,48,13,19,35,123,44*6C
$GPGSV,12,3,13,20,17,268,33,13,21,10,010,44,13,23,23,269,40,13,24,68,267,45*6D
$GPGSV,12,4,13,28,32,059,45,,,,,,,,,,,,,,,*56
$GLGSV,12,5,09,66,20,195,45,09,67,53,251,48,09,68,33,324,51,09,76,59,061,54*78
$GLGSV,12,6,09,77,61,268,37,09,78,08,256,43,09,84,05,349,37,09,85,31,042,51*7C
$GLGSV,12,7,09,86,24,098,38,,,,,,,,,,,,,,,*46
$GAGSV,12,8,09,301,26,066,44,09,303,12,323,38,09,305,50,280,43,09,309,43,198,49*7D
$GAGSV,12,9,09,313,13,009,44,09,324,44,234,45,09,326,17,062,44,09,331,79,104,46*78
$GAGSV,12,10,09,333,04,107,38,,,,,,,,,,,,,,,*45
$GBGSV,12,11,07,407,04,053,40,07,410,25,060,46,07,419,22,213,44,07,421,18,327,43*44
$GBGSV,12,12,07,422,39,272,48,07,427,23,114,46,07,428,27,057,48,,,,,*46
$GNGSA,2,M,01,10,12,13,14,15,17,19,20,21,23,24,28,0.83,0.47,0.68*39
$GNGSA,2,M,66,67,68,76,77,78,84,85,86,0.83,0.47,0.68*35
$GNGSA,2,M,301,303,305,309,313,324,326,331,333,0.83,0.47,0.68*04
$GNGSA,2,M,407,410,419,421,422,427,428,0.83,0.47,0.68*0D
$GNGGA,122204.19,5741.1549,N,01153.1748,E,4,38,0.5,4.03,M,35.78,M,,*7A
$GNVTG,322.03,T,322.03,M,2.23,N,1.21,K,D*39
$PASHR,122204.19,191.93,T,,,,,,,2*02
$GNRMC,122204.19,A,5741.1549,N,01153.1748,E,2.23,322.03,030221,,W,D*1E
$GNZDA,122204.19,03,02,2021,,*77
$MXPGN,01F200,2838,FFFF7F04380D1500*1A
$HCHDG,174.99,0.00,E,,*2B
$HEHDT,188.80,T*16
$PFEC,GPatt,,-1.37,+1.03*67
$MXPGN,00FF3D,680A,FFFFFF0EFFFF9F41*67
$MXPGN,00FF3D,680A,FFFFFF02FFFF9F41*10
$MXPGN,01F200,2838,FFFF7F04380D1A00*6E
$MXPGN,00FF19,7809,0000000003019F41*16
$HCHDG,174.99,0.00,E,,*2B
$HEHDT,188.80,T*16
$PFEC,GPatt,,-1.38,+1.04*6F
$TIROT,-154.80,A*2E
$VDVBW,,,A,,,A,,A,,A*51
$GPGSV,12,1,13,01,12,032,42,13,10,25,304,42,13,12,25,221,46,13,13,27,157,46*64
$GPGSV,12,2,13,14,23,059,44,13,15,48,200,46,13,17,41,091,49,13,19,35,123,44*6C
$GPGSV,12,3,13,20,17,268,35,13,21,10,010,44,13,23,23,269,42,13,24,68,267,46*6A
$GPGSV,12,4,13,28,32,059,44,,,,,,,,,,,,,,,*57
$GLGSV,12,5,09,66,20,195,44,09,67,53,251,49,09,68,33,324,51,09,76,59,061,53*7F
$GLGSV,12,6,09,77,61,268,37,09,78,08,256,44,09,84,05,349,37,09,85,31,042,51*7B
$GLGSV,12,7,09,86,24,098,38,,,,,,,,,,,,,,,*46
$GAGSV,12,8,09,301,26,066,44,09,303,12,323,39,09,305,50,280,44,09,309,43,198,49*7B
$GAGSV,12,9,09,313,13,009,44,09,324,44,234,45,09,326,17,062,44,09,331,79,104,47*79
$GAGSV,12,10,09,333,04,107,38,,,,,,,,,,,,,,,*45
$GBGSV,12,11,07,407,04,053,40,07,410,25,060,46,07,419,22,213,44,07,421,18,327,43*44
$GBGSV,12,12,07,422,39,272,48,07,427,23,114,46,07,428,27,057,48,,,,,*46
$GNGSA,2,M,01,10,12,13,14,15,17,19,20,21,23,24,28,0.83,0.47,0.68*39
$GNGSA,2,M,66,67,68,76,77,78,84,85,86,0.83,0.47,0.68*35
$GNGSA,2,M,301,303,305,309,313,324,326,331,333,0.83,0.47,0.68*04
$GNGSA,2,M,407,410,419,421,422,427,428,0.83,0.47,0.68*0D
$GNGGA,122204.39,5741.1550,N,01153.1746,E,4,38,0.5,4.04,M,35.78,M,,*79
$GNVTG,317.98,T,317.98,M,2.84,N,1.54,K,D*36
$PASHR,122204.39,190.32,T,,,,,,,2*0A
$GNRMC,122204.39,A,5741.1550,N,01153.1746,E,2.84,317.98,030221,,W,D*13
$GNZDA,122204.39,03,02,2021,,*75
$MXPGN,01F201,2856,9B0D230907011AE0*19
$MXPGN,01F201,2856,B92C00427FFF85E1*19
$MXPGN,01F201,2856,7FFFFFFFFF0137E2*1E
$MXPGN,01F201,2756,7F1300000000E3*17
$MXPGN,01F200,2856,FFFF7F00000CCB01*1E
$MXPGN,01F200,2838,FFFF7F04380D2B00*6E
$MXPGN,01FF05,780A,310A0D0099138740*14
$MXPGN,01FF05,780A,2C302E3036343441*1C
$MXPGN,01FF05,780A,302E302C322E3042*6F
$MXPGN,01FF05,780A,2E302C302E302C43*1E
$MXPGN,01FF05,780A,2C30302E302C3044*6D
$MXPGN,01FF05,780A,2D2C382E38383145*62
$MXPGN,01FF05,780A,322D2C38352E3246*65
$MXPGN,01FF05,780A,342E322C32362E47*6A
$MXPGN,01FF05,780A,2E302C342E322C48*13
$MXPGN,01FF05,780A,302E302C302C3049*60
$MXPGN,01FF05,780A,302C30372E312C4A*1E
$MXPGN,01FF05,780A,2C302E302C302E4B*6F
$MXPGN,01FF05,780A,302E302C302E304C*1C
$MXPGN,01FF05,780A,2E302C332E302C4D*6A
$MXPGN,01FF05,780A,2C30302E302C304E*1C
$MXPGN,01FF05,780A,393538362E37354F*1F
$HCHDG,169.99,0.00,E,,*27
$HEHDT,188.80,T*16
$PFEC,GPatt,,-1.39,+1.05*6F
